{"generatedAt":"2026-07-19T01:36:31.857Z","rulesEdition":"27 FEB 26","sources":["wikipedia","ourairports.com"],"airports":[{"iata":"ABE","name":"Lehigh Valley International Airport","city":"Allentown/Bethlehem","cityCode":"ABE","country":"US","continent":"NA","region":"PA","lat":40.651773,"lon":-75.442797},{"iata":"ABI","name":"Abilene Regional Airport","city":"Abilene","cityCode":"ABI","country":"US","continent":"NA","region":"TX","lat":32.4113006592,"lon":-99.68190002440001},{"iata":"ABJ","name":"Félix-Houphouët-Boigny International Airport","city":"Abidjan","cityCode":"ABJ","country":"CI","continent":"AF","region":"AB","lat":5.26139,"lon":-3.92629},{"iata":"ABQ","name":"Albuquerque International Sunport","city":"Albuquerque","cityCode":"ABQ","country":"US","continent":"NA","region":"NM","lat":35.039976,"lon":-106.608925},{"iata":"ABV","name":"Nnamdi Azikiwe International Airport","city":"Abuja","cityCode":"ABV","country":"NG","continent":"AF","region":"FC","lat":9.00679,"lon":7.26317},{"iata":"ABX","name":"Albury Airport","city":"East Albury","cityCode":"ABX","country":"AU","continent":"SWP","region":"NSW","lat":-36.066758,"lon":146.959148},{"iata":"ABZ","name":"Aberdeen International Airport","city":"Aberdeen","cityCode":"ABZ","country":"GB","continent":"EUME","zone":"EU","region":"SCT","lat":57.2019,"lon":-2.19778},{"iata":"ACA","name":"General Juan N. Álvarez International Airport","city":"Acapulco","cityCode":"ACA","country":"MX","continent":"NA","region":"GRO","lat":16.757126,"lon":-99.753113},{"iata":"ACC","name":"Kotoka International Airport","city":"Accra","cityCode":"ACC","country":"GH","continent":"AF","region":"AA","lat":5.605189800262451,"lon":-0.16678600013256073},{"iata":"ACE","name":"César Manrique-Lanzarote Airport","city":"San Bartolomé","cityCode":"ACE","country":"ES","continent":"EUME","zone":"EU","region":"CN","lat":28.945499,"lon":-13.6052},{"iata":"ACK","name":"Nantucket Memorial Airport","city":"Nantucket","cityCode":"ACK","country":"US","continent":"NA","region":"MA","lat":41.25310135,"lon":-70.06020355},{"iata":"ACT","name":"Waco Regional Airport","city":"Waco","cityCode":"ACT","country":"US","continent":"NA","region":"TX","lat":31.611299514770508,"lon":-97.23049926757812},{"iata":"ACV","name":"California Redwood Coast-Humboldt County Airport","city":"Arcata/Eureka","cityCode":"ACV","country":"US","continent":"NA","region":"CA","lat":40.978101,"lon":-124.109},{"iata":"ADB","name":"Adnan Menderes International Airport","city":"Gaziemir","cityCode":"ADB","country":"TR","continent":"EUME","zone":"EU","region":"35","lat":38.2924,"lon":27.157},{"iata":"ADD","name":"Addis Ababa Bole International Airport","city":"Addis Ababa","cityCode":"ADD","country":"ET","continent":"AF","region":"AA","lat":8.97789,"lon":38.799301},{"iata":"ADK","name":"Adak Airport","city":"Adak","cityCode":"ADK","country":"US","continent":"NA","region":"AK","lat":51.883564,"lon":-176.642783},{"iata":"ADL","name":"Adelaide International Airport","city":"Adelaide","cityCode":"ADL","country":"AU","continent":"SWP","region":"SA","lat":-34.947512,"lon":138.533393},{"iata":"ADQ","name":"Kodiak Airport","city":"Kodiak","cityCode":"ADQ","country":"US","continent":"NA","region":"AK","lat":57.75,"lon":-152.4940033},{"iata":"ADZ","name":"Gustavo Rojas Pinilla International Airport","city":"San Andrés","cityCode":"ADZ","country":"CO","continent":"SA","region":"SAP","lat":12.5836,"lon":-81.7112},{"iata":"AER","name":"Sochi International Airport","city":"Sochi","cityCode":"AER","country":"RU","continent":"EUME","zone":"EU","region":"KDA","lat":43.449902,"lon":39.9566},{"iata":"AEX","name":"Alexandria International Airport","city":"Alexandria","cityCode":"AEX","country":"US","continent":"NA","region":"LA","lat":31.325828,"lon":-92.546702},{"iata":"AGA","name":"Al Massira Airport","city":"Agadir (Temsia)","cityCode":"AGA","country":"MA","continent":"EUME","zone":"EU","region":"09","lat":30.322478,"lon":-9.412003},{"iata":"AGP","name":"Málaga-Costa del Sol Airport","city":"Málaga","cityCode":"AGP","country":"ES","continent":"EUME","zone":"EU","region":"AN","lat":36.6749,"lon":-4.49911},{"iata":"AGS","name":"Augusta Regional At Bush Field","city":"Augusta","cityCode":"AGS","country":"US","continent":"NA","region":"GA","lat":33.3699,"lon":-81.9645},{"iata":"AGU","name":"Aguascalientes International Airport","city":"Aguascalientes","cityCode":"AGU","country":"MX","continent":"NA","region":"AGU","lat":21.699589,"lon":-102.318372},{"iata":"AHB","name":"Abha International Airport","city":"Abha","cityCode":"AHB","country":"SA","continent":"EUME","zone":"ME","region":"14","lat":18.2404,"lon":42.656601},{"iata":"AHU","name":"Cherif Al Idrissi Airport","city":"Al Hoceima","cityCode":"AHU","country":"MA","continent":"EUME","zone":"EU","region":"01","lat":35.177101,"lon":-3.83952},{"iata":"AKJ","name":"Asahikawa Airport","city":"Higashikagura","cityCode":"AKJ","country":"JP","continent":"AS","region":"01","lat":43.670799,"lon":142.447006},{"iata":"AKL","name":"Auckland International Airport","city":"Auckland","cityCode":"AKL","country":"NZ","continent":"SWP","region":"AUK","lat":-37.01199,"lon":174.786331},{"iata":"AKN","name":"King Salmon Airport","city":"King Salmon","cityCode":"AKN","country":"US","continent":"NA","region":"AK","lat":58.677845,"lon":-156.651965},{"iata":"ALA","name":"Almaty International Airport","city":"Almaty","cityCode":"ALA","country":"KZ","continent":"AS","region":"ALA","lat":43.354267,"lon":77.042828},{"iata":"ALB","name":"Albany International Airport","city":"Albany","cityCode":"ALB","country":"US","continent":"NA","region":"NY","lat":42.748299,"lon":-73.801697},{"iata":"ALC","name":"Alicante-Elche Miguel Hernández Airport","city":"Alicante","cityCode":"ALC","country":"ES","continent":"EUME","zone":"EU","region":"VC","lat":38.2822,"lon":-0.558156},{"iata":"ALF","name":"Alta Airport","city":"Alta","cityCode":"ALF","country":"NO","continent":"EUME","zone":"EU","region":"56","lat":69.976097,"lon":23.3717},{"iata":"ALG","name":"Houari Boumediene Airport","city":"Algiers","cityCode":"ALG","country":"DZ","continent":"EUME","zone":"EU","region":"16","lat":36.693886,"lon":3.214531},{"iata":"ALO","name":"Waterloo Regional Airport","city":"Waterloo","cityCode":"ALO","country":"US","continent":"NA","region":"IA","lat":42.557098388671875,"lon":-92.40029907226562},{"iata":"ALP","name":"Aleppo International Airport","city":"Aleppo","cityCode":"ALP","country":"SY","continent":"EUME","zone":"ME","region":"HL","lat":36.181262,"lon":37.226869},{"iata":"ALW","name":"Walla Walla Regional Airport","city":"Walla Walla","cityCode":"ALW","country":"US","continent":"NA","region":"WA","lat":46.09489822,"lon":-118.288002},{"iata":"AMA","name":"Rick Husband Amarillo International Airport","city":"Amarillo","cityCode":"AMA","country":"US","continent":"NA","region":"TX","lat":35.217857,"lon":-101.706444},{"iata":"AMD","name":"Sardar Vallabh Patel International Airport","city":"Ahmedabad","cityCode":"AMD","country":"IN","continent":"AS","region":"GJ","lat":23.0772,"lon":72.634697},{"iata":"AMM","name":"Queen Alia International Airport","city":"Amman","cityCode":"AMM","country":"JO","continent":"EUME","zone":"ME","region":"AM","lat":31.7226009369,"lon":35.9931983948},{"iata":"AMS","name":"Amsterdam Airport Schiphol","city":"Amsterdam","cityCode":"AMS","country":"NL","continent":"EUME","zone":"EU","region":"NH","lat":52.308601,"lon":4.76389},{"iata":"ANC","name":"Ted Stevens Anchorage International Airport","city":"Anchorage","cityCode":"ANC","country":"US","continent":"NA","region":"AK","lat":61.179004,"lon":-149.992561},{"iata":"ANU","name":"V. C. Bird International Airport","city":"Osbourn","cityCode":"ANU","country":"AG","continent":"NA","region":"03","lat":17.1367,"lon":-61.792702},{"iata":"AOJ","name":"Aomori Airport","city":"Aomori","cityCode":"AOJ","country":"JP","continent":"AS","region":"02","lat":40.733777,"lon":140.689477},{"iata":"AOR","name":"Sultan Abdul Halim Airport","city":"Alor Satar","cityCode":"AOR","country":"MY","continent":"AS","region":"02","lat":6.189670085906982,"lon":100.39800262451172},{"iata":"APF","name":"Naples Municipal Airport","city":"Naples","cityCode":"APF","country":"US","continent":"NA","region":"FL","lat":26.1525993347,"lon":-81.7752990723},{"iata":"APW","name":"Faleolo International Airport","city":"Apia","cityCode":"APW","country":"WS","continent":"SWP","region":"AA","lat":-13.83,"lon":-172.007996},{"iata":"AQJ","name":"King Hussein International Airport","city":"Aqaba","cityCode":"AQJ","country":"JO","continent":"EUME","zone":"ME","region":"AQ","lat":29.611601,"lon":35.018101},{"iata":"ARM","name":"Armidale Airport","city":"Armidale","cityCode":"ARM","country":"AU","continent":"SWP","region":"NSW","lat":-30.528099060099997,"lon":151.617004395},{"iata":"ARN","name":"Stockholm-Arlanda Airport","city":"Stockholm","cityCode":"STO","country":"SE","continent":"EUME","zone":"EU","region":"AB","lat":59.64849,"lon":17.928829},{"iata":"ART","name":"Watertown International Airport","city":"Watertown","cityCode":"ART","country":"US","continent":"NA","region":"NY","lat":43.991901,"lon":-76.021698},{"iata":"ASE","name":"Aspen-Pitkin County Airport (Sardy Field)","city":"Aspen","cityCode":"ASE","country":"US","continent":"NA","region":"CO","lat":39.223202,"lon":-106.869003},{"iata":"ASJ","name":"Amami Airport","city":"Amami","cityCode":"ASJ","country":"JP","continent":"AS","region":"46","lat":28.430599212646484,"lon":129.71299743652344},{"iata":"ASP","name":"Alice Springs Airport","city":"Alice Springs","cityCode":"ASP","country":"AU","continent":"SWP","region":"NT","lat":-23.806588,"lon":133.903427},{"iata":"ATH","name":"Athens Eleftherios Venizelos International Airport","city":"Spata-Artemida","cityCode":"ATH","country":"GR","continent":"EUME","zone":"EU","region":"I","lat":37.936401,"lon":23.9445},{"iata":"ATL","name":"Hartsfield Jackson Atlanta International Airport","city":"Atlanta","cityCode":"ATL","country":"US","continent":"NA","region":"GA","lat":33.6367,"lon":-84.428101},{"iata":"ATQ","name":"Sri Guru Ram Das Ji International Airport","city":"Amritsar","cityCode":"ATQ","country":"IN","continent":"AS","region":"PB","lat":31.7096,"lon":74.797302},{"iata":"ATW","name":"Appleton International Airport","city":"Appleton","cityCode":"ATW","country":"US","continent":"NA","region":"WI","lat":44.258515,"lon":-88.519},{"iata":"AUA","name":"Queen Beatrix International Airport","city":"Oranjestad","cityCode":"AUA","country":"AW","continent":"NA","region":"U","lat":12.501056,"lon":-70.014281},{"iata":"AUH","name":"Zayed International Airport","city":"Abu Dhabi","cityCode":"AUH","country":"AE","continent":"EUME","zone":"ME","region":"AZ","lat":24.440966,"lon":54.649237},{"iata":"AUS","name":"Austin Bergstrom International Airport","city":"Austin","cityCode":"AUS","country":"US","continent":"NA","region":"TX","lat":30.197535,"lon":-97.662015},{"iata":"AVL","name":"Asheville Regional Airport","city":"Asheville","cityCode":"AVL","country":"US","continent":"NA","region":"NC","lat":35.435488,"lon":-82.541853},{"iata":"AVP","name":"Wilkes-Barre/Scranton International Airport","city":"Wilkes-Barre/Scranton","cityCode":"AVP","country":"US","continent":"NA","region":"PA","lat":41.337064,"lon":-75.724232},{"iata":"AVV","name":"Melbourne Avalon International Airport","city":"Geelong/Melbourne","cityCode":"MEL","country":"AU","continent":"SWP","region":"VIC","lat":-38.040269,"lon":144.467196},{"iata":"AXA","name":"Clayton J. Lloyd International Airport","city":"The Valley","cityCode":"AXA","country":"AI","continent":"NA","region":"U","lat":18.204773,"lon":-63.05383},{"iata":"AXT","name":"Akita Airport","city":"Akita","cityCode":"AXT","country":"JP","continent":"AS","region":"05","lat":39.615601,"lon":140.218994},{"iata":"AYQ","name":"Ayers Rock Connellan Airport","city":"Yulara","cityCode":"AYQ","country":"AU","continent":"SWP","region":"NT","lat":-25.185913,"lon":130.97703},{"iata":"AYT","name":"Antalya International Airport","city":"Antalya","cityCode":"AYT","country":"TR","continent":"EUME","zone":"EU","region":"07","lat":36.898701,"lon":30.800501},{"iata":"AZO","name":"Kalamazoo/Battle Creek International Airport","city":"Kalamazoo","cityCode":"AZO","country":"US","continent":"NA","region":"MI","lat":42.232105,"lon":-85.549637},{"iata":"AZS","name":"Samaná El Catey International Airport","city":"Samana","cityCode":"AZS","country":"DO","continent":"NA","region":"20","lat":19.269259,"lon":-69.737405},{"iata":"BAH","name":"Bahrain International Airport","city":"Manama","cityCode":"BAH","country":"BH","continent":"EUME","zone":"ME","region":"15","lat":26.267295,"lon":50.63764},{"iata":"BAQ","name":"Ernesto Cortissoz International Airport","city":"Barranquilla","cityCode":"BAQ","country":"CO","continent":"SA","region":"ATL","lat":10.8896,"lon":-74.7808},{"iata":"BBU","name":"Bucharest Băneasa Aurel Vlaicu International Airport","city":"Bucharest","cityCode":"BBU","country":"RO","continent":"EUME","zone":"EU","region":"B","lat":44.503133,"lon":26.102944},{"iata":"BCI","name":"Barcaldine Airport","city":"Barcaldine","cityCode":"BCI","country":"AU","continent":"SWP","region":"QLD","lat":-23.566268,"lon":145.302086},{"iata":"BCN","name":"Josep Tarradellas Barcelona-El Prat Airport","city":"Barcelona","cityCode":"BCN","country":"ES","continent":"EUME","zone":"EU","region":"CT","lat":41.2971,"lon":2.07846},{"iata":"BDA","name":"L.F. Wade International Airport","city":"Hamilton","cityCode":"BDA","country":"BM","continent":"NA","region":"U","lat":32.363802,"lon":-64.67824},{"iata":"BDB","name":"Bundaberg Airport","city":"Bundaberg","cityCode":"BDB","country":"AU","continent":"SWP","region":"QLD","lat":-24.905039,"lon":152.322612},{"iata":"BDL","name":"Bradley International Airport","city":"Hartford","cityCode":"BDL","country":"US","continent":"NA","region":"CT","lat":41.938555,"lon":-72.688016},{"iata":"BDS","name":"Brindisi Airport","city":"Brindisi","cityCode":"BDS","country":"IT","continent":"EUME","zone":"EU","region":"75","lat":40.6576,"lon":17.947001},{"iata":"BEG","name":"Belgrade Nikola Tesla Airport","city":"Belgrade","cityCode":"BEG","country":"RS","continent":"EUME","zone":"EU","region":"00","lat":44.818401,"lon":20.309099},{"iata":"BEN","name":"Benina International Airport","city":"Benina","cityCode":"BEN","country":"LY","continent":"EUME","zone":"ME","region":"BA","lat":32.096802,"lon":20.269501},{"iata":"BER","name":"Berlin Brandenburg Airport","city":"Berlin","cityCode":"BER","country":"DE","continent":"EUME","zone":"EU","region":"BR","lat":52.361738,"lon":13.502341},{"iata":"BES","name":"Brest Bretagne airport","city":"Brest","cityCode":"BES","country":"FR","continent":"EUME","zone":"EU","region":"BRE","lat":48.447899,"lon":-4.41854},{"iata":"BET","name":"Bethel Airport","city":"Bethel","cityCode":"BET","country":"US","continent":"NA","region":"AK","lat":60.77980042,"lon":-161.8379974},{"iata":"BEY","name":"Beirut Rafic Hariri International Airport","city":"Beirut","cityCode":"BEY","country":"LB","continent":"EUME","zone":"ME","region":"JL","lat":33.819833,"lon":35.487443},{"iata":"BFL","name":"Meadows Field","city":"Bakersfield","cityCode":"BFL","country":"US","continent":"NA","region":"CA","lat":35.433601,"lon":-119.056999},{"iata":"BGF","name":"Bangui M'Poko International Airport","city":"Bangui","cityCode":"BGF","country":"CF","continent":"AF","region":"MP","lat":4.39848,"lon":18.518801},{"iata":"BGI","name":"Grantley Adams International Airport","city":"Bridgetown","cityCode":"BGI","country":"BB","continent":"NA","region":"01","lat":13.074667,"lon":-59.491034},{"iata":"BGO","name":"Bergen Airport, Flesland","city":"Bergen","cityCode":"BGO","country":"NO","continent":"EUME","zone":"EU","region":"46","lat":60.2934,"lon":5.21814},{"iata":"BGR","name":"Bangor International Airport","city":"Bangor","cityCode":"BGR","country":"US","continent":"NA","region":"ME","lat":44.806364,"lon":-68.826668},{"iata":"BGW","name":"Baghdad International Airport / New Al Muthana Air Base","city":"Baghdad","cityCode":"BGW","country":"IQ","continent":"EUME","zone":"ME","region":"BG","lat":33.262501,"lon":44.2346},{"iata":"BHD","name":"George Best Belfast City Airport","city":"Belfast","cityCode":"BHD","country":"GB","continent":"EUME","zone":"EU","region":"NIR","lat":54.618099,"lon":-5.8725},{"iata":"BHM","name":"Birmingham-Shuttlesworth International Airport","city":"Birmingham","cityCode":"BHM","country":"US","continent":"NA","region":"AL","lat":33.562877,"lon":-86.750712},{"iata":"BHQ","name":"Broken Hill Airport","city":"Broken Hill","cityCode":"BHQ","country":"AU","continent":"SWP","region":"NSW","lat":-32.0013999939,"lon":141.472000122},{"iata":"BHX","name":"Birmingham Airport","city":"Birmingham, West Midlands","cityCode":"BHX","country":"GB","continent":"EUME","zone":"EU","region":"ENG","lat":52.453899,"lon":-1.74803},{"iata":"BIL","name":"Billings Logan International Airport","city":"Billings","cityCode":"BIL","country":"US","continent":"NA","region":"MT","lat":45.808932,"lon":-108.541242},{"iata":"BIM","name":"South Bimini Airport","city":"South Bimini","cityCode":"BIM","country":"BS","continent":"NA","region":"BI","lat":25.6998996735,"lon":-79.2647018433},{"iata":"BIO","name":"Bilbao Airport","city":"Bilbao","cityCode":"BIO","country":"ES","continent":"EUME","zone":"EU","region":"PV","lat":43.301102,"lon":-2.91061},{"iata":"BIS","name":"Bismarck Municipal Airport","city":"Bismarck","cityCode":"BIS","country":"US","continent":"NA","region":"ND","lat":46.772734,"lon":-100.746874},{"iata":"BJL","name":"Banjul International Airport","city":"Banjul (Yundum)","cityCode":"BJL","country":"GM","continent":"AF","region":"W","lat":13.338,"lon":-16.652201},{"iata":"BJV","name":"Milas Bodrum International Airport","city":"Bodrum","cityCode":"BJV","country":"TR","continent":"EUME","zone":"EU","region":"48","lat":37.249314,"lon":27.66401},{"iata":"BJX","name":"Guanajuato International Airport","city":"Silao","cityCode":"BJX","country":"MX","continent":"NA","region":"GUA","lat":20.992695,"lon":-101.480284},{"iata":"BJZ","name":"Badajoz Airport","city":"Badajoz","cityCode":"BJZ","country":"ES","continent":"EUME","zone":"EU","region":"EX","lat":38.8913,"lon":-6.82133},{"iata":"BKI","name":"Kota Kinabalu International Airport","city":"Kota Kinabalu","cityCode":"BKI","country":"MY","continent":"AS","region":"12","lat":5.932743,"lon":116.049324},{"iata":"BKK","name":"Suvarnabhumi Airport","city":"Bangkok","cityCode":"BKK","country":"TH","continent":"AS","region":"10","lat":13.6811,"lon":100.747002},{"iata":"BKO","name":"Modibo Keita International Airport","city":"Bamako","cityCode":"BKO","country":"ML","continent":"AF","region":"2","lat":12.5335,"lon":-7.94994},{"iata":"BKQ","name":"Blackall Airport","city":"Blackall","cityCode":"BKQ","country":"AU","continent":"SWP","region":"QLD","lat":-24.431678,"lon":145.429716},{"iata":"BLI","name":"Bellingham International Airport","city":"Bellingham","cityCode":"BLI","country":"US","continent":"NA","region":"WA","lat":48.79280090332031,"lon":-122.53800201416016},{"iata":"BLL","name":"Billund Airport","city":"Billund","cityCode":"BLL","country":"DK","continent":"EUME","zone":"EU","region":"83","lat":55.740335,"lon":9.157019},{"iata":"BLQ","name":"Bologna Guglielmo Marconi Airport","city":"Bologna","cityCode":"BLQ","country":"IT","continent":"EUME","zone":"EU","region":"45","lat":44.5354,"lon":11.2887},{"iata":"BLR","name":"Kempegowda International Airport Bengaluru","city":"Bengaluru","cityCode":"BLR","country":"IN","continent":"AS","region":"KA","lat":13.1979,"lon":77.706299},{"iata":"BME","name":"Broome International Airport","city":"Broome","cityCode":"BME","country":"AU","continent":"SWP","region":"WA","lat":-17.949194,"lon":122.2283},{"iata":"BMI","name":"Central Illinois Regional Airport at Bloomington-Normal","city":"Bloomington/Normal","cityCode":"BMI","country":"US","continent":"NA","region":"IL","lat":40.4771,"lon":-88.915901},{"iata":"BNA","name":"Nashville International Airport","city":"Nashville","cityCode":"BNA","country":"US","continent":"NA","region":"TN","lat":36.1245,"lon":-86.6782},{"iata":"BNE","name":"Brisbane International Airport","city":"Brisbane","cityCode":"BNE","country":"AU","continent":"SWP","region":"QLD","lat":-27.384199142456055,"lon":153.11700439453125},{"iata":"BNK","name":"Ballina Byron Gateway Airport","city":"Ballina","cityCode":"BNK","country":"AU","continent":"SWP","region":"NSW","lat":-28.833236,"lon":153.561471},{"iata":"BOD","name":"Bordeaux–Mérignac Airport","city":"Bordeaux","cityCode":"BOD","country":"FR","continent":"EUME","zone":"EU","region":"NAQ","lat":44.82865,"lon":-0.715356},{"iata":"BOG","name":"El Dorado International Airport","city":"Bogota","cityCode":"BOG","country":"CO","continent":"SA","region":"DC","lat":4.70159,"lon":-74.1469},{"iata":"BOI","name":"Boise Air Terminal/Gowen Field","city":"Boise","cityCode":"BOI","country":"US","continent":"NA","region":"ID","lat":43.5644,"lon":-116.223},{"iata":"BOJ","name":"Burgas Airport","city":"Burgas","cityCode":"BOJ","country":"BG","continent":"EUME","zone":"EU","region":"02","lat":42.569917,"lon":27.515173},{"iata":"BOM","name":"Chhatrapati Shivaji Maharaj International Airport","city":"Mumbai","cityCode":"BOM","country":"IN","continent":"AS","region":"MM","lat":19.088699,"lon":72.867897},{"iata":"BON","name":"Flamingo International Airport","city":"Kralendijk","cityCode":"BON","country":"BQ","continent":"NA","region":"BO","lat":12.131,"lon":-68.268501},{"iata":"BOO","name":"Bodø Airport","city":"Bodø","cityCode":"BOO","country":"NO","continent":"EUME","zone":"EU","region":"18","lat":67.269203,"lon":14.3653},{"iata":"BOS","name":"Boston Logan International Airport","city":"Boston","cityCode":"BOS","country":"US","continent":"NA","region":"MA","lat":42.36197,"lon":-71.0079},{"iata":"BPN","name":"Sultan Aji Muhammad Sulaiman Sepinggan International Airport","city":"Balikpapan","cityCode":"BPN","country":"ID","continent":"AS","region":"KI","lat":-1.268342,"lon":116.89452},{"iata":"BPT","name":"Jack Brooks Regional Airport","city":"Beaumont/Port Arthur","cityCode":"BPT","country":"US","continent":"NA","region":"TX","lat":29.9508,"lon":-94.020699},{"iata":"BQB","name":"Busselton Margaret River Regional Airport","city":"Busselton","cityCode":"BQB","country":"AU","continent":"SWP","region":"WA","lat":-33.687222,"lon":115.400278},{"iata":"BRI","name":"Bari Karol Wojtyła International Airport","city":"Bari","cityCode":"BRI","country":"IT","continent":"EUME","zone":"EU","region":"75","lat":41.138901,"lon":16.760599},{"iata":"BRO","name":"Brownsville South Padre Island International Airport","city":"Brownsville","cityCode":"BRO","country":"US","continent":"NA","region":"TX","lat":25.907238,"lon":-97.425235},{"iata":"BRS","name":"Bristol Airport","city":"Bristol","cityCode":"BRS","country":"GB","continent":"EUME","zone":"EU","region":"ENG","lat":51.382326,"lon":-2.716453},{"iata":"BRU","name":"Brussels Airport","city":"Zaventem","cityCode":"BRU","country":"BE","continent":"EUME","zone":"EU","region":"VBR","lat":50.901402,"lon":4.48444},{"iata":"BRW","name":"Wiley Post Will Rogers Memorial Airport","city":"Utqiaġvik","cityCode":"BRW","country":"US","continent":"NA","region":"AK","lat":71.285402,"lon":-156.766008},{"iata":"BSL","name":"EuroAirport Basel–Mulhouse–Freiburg","city":"Bâle / Mulhouse","cityCode":"EAP","country":"FR","continent":"EUME","zone":"EU","region":"GES","lat":47.60068,"lon":7.521117},{"iata":"BSR","name":"Basra International Airport","city":"Basra","cityCode":"BSR","country":"IQ","continent":"EUME","zone":"ME","region":"BA","lat":30.549101,"lon":47.662102},{"iata":"BTR","name":"Baton Rouge Metropolitan Airport","city":"Baton Rouge","cityCode":"BTR","country":"US","continent":"NA","region":"LA","lat":30.533199,"lon":-91.149597},{"iata":"BTU","name":"Bintulu Airport","city":"Bintulu","cityCode":"BTU","country":"MY","continent":"AS","region":"13","lat":3.12385010719,"lon":113.019996643},{"iata":"BTV","name":"Patrick Leahy Burlington International Airport","city":"Burlington","cityCode":"BTV","country":"US","continent":"NA","region":"VT","lat":44.471901,"lon":-73.153297},{"iata":"BUD","name":"Budapest Liszt Ferenc International Airport","city":"Budapest","cityCode":"BUD","country":"HU","continent":"EUME","zone":"EU","region":"BU","lat":47.43018,"lon":19.262393},{"iata":"BUF","name":"Buffalo Niagara International Airport","city":"Buffalo","cityCode":"BUF","country":"US","continent":"NA","region":"NY","lat":42.940498,"lon":-78.732201},{"iata":"BUR","name":"Hollywood Burbank/Bob Hope Airport","city":"Burbank","cityCode":"BUR","country":"US","continent":"NA","region":"CA","lat":34.202834,"lon":-118.35805},{"iata":"BWI","name":"Baltimore/Washington International Thurgood Marshall Airport","city":"Baltimore","cityCode":"WAS","country":"US","continent":"NA","region":"MD","lat":39.1754,"lon":-76.668297},{"iata":"BWT","name":"Wynyard Airport","city":"Burnie","cityCode":"BWT","country":"AU","continent":"SWP","region":"TAS","lat":-40.997039,"lon":145.726},{"iata":"BXG","name":"Bendigo Airport","city":"Bendigo Airport","cityCode":"BXG","country":"AU","continent":"SWP","region":"VIC","lat":-36.739399,"lon":144.330002},{"iata":"BZE","name":"Philip S. W. Goldson International Airport","city":"Belize City","cityCode":"BZE","country":"BZ","continent":"NA","region":"BZ","lat":17.539951,"lon":-88.303556},{"iata":"BZN","name":"Bozeman Yellowstone International Airport","city":"Bozeman","cityCode":"BZN","country":"US","continent":"NA","region":"MT","lat":45.778853,"lon":-111.153711},{"iata":"BZV","name":"Maya-Maya International Airport","city":"Brazzaville","cityCode":"BZV","country":"CG","continent":"AF","region":"12","lat":-4.2517,"lon":15.253},{"iata":"CAE","name":"Columbia Metropolitan Airport","city":"Columbia","cityCode":"CAE","country":"US","continent":"NA","region":"SC","lat":33.938172,"lon":-81.123022},{"iata":"CAG","name":"Cagliari Elmas Airport","city":"Cagliari","cityCode":"CAG","country":"IT","continent":"EUME","zone":"EU","region":"88","lat":39.251499,"lon":9.05428},{"iata":"CAI","name":"Cairo International Airport","city":"Cairo","cityCode":"CAI","country":"EG","continent":"EUME","zone":"ME","region":"C","lat":30.111534,"lon":31.396694},{"iata":"CAK","name":"Akron Canton Regional Airport","city":"Akron","cityCode":"CAK","country":"US","continent":"NA","region":"OH","lat":40.916099548339844,"lon":-81.44219970703125},{"iata":"CAN","name":"Guangzhou Baiyun International Airport","city":"Guangzhou (Huadu)","cityCode":"CAN","country":"CN","continent":"AS","region":"44","lat":23.392401,"lon":113.299004},{"iata":"CAP","name":"Cap Haitien International Airport","city":"Cap Haitien","cityCode":"CAP","country":"HT","continent":"NA","region":"ND","lat":19.725547,"lon":-72.20071},{"iata":"CBR","name":"Canberra Airport","city":"Canberra","cityCode":"CBR","country":"AU","continent":"SWP","region":"ACT","lat":-35.3069,"lon":149.195007},{"iata":"CCC","name":"Jardines Del Rey Airport","city":"Cayo Coco","cityCode":"CCC","country":"CU","continent":"NA","region":"08","lat":22.461000442499998,"lon":-78.32839965820001},{"iata":"CCJ","name":"Calicut International Airport","city":"Calicut","cityCode":"CCJ","country":"IN","continent":"AS","region":"KL","lat":11.135996,"lon":75.955152},{"iata":"CCS","name":"Maiquetía Simón Bolívar International Airport","city":"Maiquetía","cityCode":"CCS","country":"VE","continent":"SA","region":"X","lat":10.602214,"lon":-66.991174},{"iata":"CCU","name":"Netaji Subhash Chandra Bose International Airport","city":"Kolkata","cityCode":"CCU","country":"IN","continent":"AS","region":"WB","lat":22.654012,"lon":88.44765},{"iata":"CDG","name":"Charles de Gaulle International Airport","city":"Paris (Roissy-en-France, Val-d'Oise)","cityCode":"PAR","country":"FR","continent":"EUME","zone":"EU","region":"IDF","lat":49.00896,"lon":2.554117},{"iata":"CDT","name":"Castellón-Costa Azahar Airport","city":"Castellón de la Plana","cityCode":"CDT","country":"ES","continent":"EUME","zone":"EU","region":"VC","lat":40.213889,"lon":0.073333},{"iata":"CDV","name":"Merle K (Mudhole) Smith Airport","city":"Cordova","cityCode":"CDV","country":"US","continent":"NA","region":"AK","lat":60.491798,"lon":-145.477997},{"iata":"CEB","name":"Mactan Cebu International Airport","city":"Cebu City/Lapu-Lapu City","cityCode":"CEB","country":"PH","continent":"AS","region":"CEB","lat":10.309261,"lon":123.97974},{"iata":"CFG","name":"Jaime Gonzalez Airport","city":"Cienfuegos","cityCode":"CFG","country":"CU","continent":"NA","region":"06","lat":22.149999618530273,"lon":-80.41419982910156},{"iata":"CFN","name":"Donegal Airport","city":"Donegal","cityCode":"CFN","country":"IE","continent":"EUME","zone":"EU","region":"DL","lat":55.0442008972168,"lon":-8.340999603271484},{"iata":"CFS","name":"Coffs Harbour Airport","city":"Coffs Harbour","cityCode":"CFS","country":"AU","continent":"SWP","region":"NSW","lat":-30.320601,"lon":153.115997},{"iata":"CFU","name":"Corfu Ioannis Kapodistrias International Airport","city":"Kerkyra (Corfu)","cityCode":"CFU","country":"GR","continent":"EUME","zone":"EU","region":"F","lat":39.60145,"lon":19.912179},{"iata":"CGK","name":"Soekarno-Hatta International Airport","city":"Jakarta","cityCode":"JKT","country":"ID","continent":"AS","region":"BT","lat":-6.12557,"lon":106.655998},{"iata":"CGO","name":"Zhengzhou Xinzheng International Airport","city":"Zhengzhou","cityCode":"CGO","country":"CN","continent":"AS","region":"41","lat":34.526497,"lon":113.849165},{"iata":"CHA","name":"Chattanooga Metropolitan Airport (Lovell Field)","city":"Chattanooga","cityCode":"CHA","country":"US","continent":"NA","region":"TN","lat":35.035301,"lon":-85.203796},{"iata":"CHC","name":"Christchurch International Airport","city":"Christchurch","cityCode":"CHC","country":"NZ","continent":"SWP","region":"CAN","lat":-43.489029,"lon":172.532065},{"iata":"CHO","name":"Charlottesville Albemarle Airport","city":"Charlottesville","cityCode":"CHO","country":"US","continent":"NA","region":"VA","lat":38.13859939575195,"lon":-78.4529037475586},{"iata":"CHQ","name":"Chania International Airport","city":"Souda","cityCode":"CHQ","country":"GR","continent":"EUME","zone":"EU","region":"M","lat":35.531207,"lon":24.150673},{"iata":"CHS","name":"Charleston International Airport","city":"Charleston","cityCode":"CHS","country":"US","continent":"NA","region":"SC","lat":32.896159,"lon":-80.038151},{"iata":"CID","name":"The Eastern Iowa Airport","city":"Cedar Rapids","cityCode":"CID","country":"US","continent":"NA","region":"IA","lat":41.884701,"lon":-91.7108},{"iata":"CKG","name":"Chongqing Jiangbei International Airport","city":"Chongqing","cityCode":"CKG","country":"CN","continent":"AS","region":"50","lat":29.712254,"lon":106.651895},{"iata":"CKY","name":"Ahmed Sékou Touré International Airport","city":"Conakry","cityCode":"CKY","country":"GN","continent":"AF","region":"C","lat":9.57689,"lon":-13.612},{"iata":"CLD","name":"McClellan-Palomar Airport","city":"Carlsbad","cityCode":"CLD","country":"US","continent":"NA","region":"CA","lat":33.1283,"lon":-117.279999},{"iata":"CLE","name":"Cleveland Hopkins International Airport","city":"Cleveland","cityCode":"CLE","country":"US","continent":"NA","region":"OH","lat":41.411701,"lon":-81.8498},{"iata":"CLL","name":"Easterwood Field","city":"College Station","cityCode":"CLL","country":"US","continent":"NA","region":"TX","lat":30.5886,"lon":-96.3638},{"iata":"CLO","name":"Alfonso Bonilla Aragon International Airport","city":"Cali","cityCode":"CLO","country":"CO","continent":"SA","region":"VAC","lat":3.542717,"lon":-76.381898},{"iata":"CLT","name":"Charlotte Douglas International Airport","city":"Charlotte","cityCode":"CLT","country":"US","continent":"NA","region":"NC","lat":35.2140007019043,"lon":-80.94309997558594},{"iata":"CMB","name":"Bandaranaike International Colombo Airport","city":"Colombo","cityCode":"CMB","country":"LK","continent":"AS","region":"1","lat":7.180759906768799,"lon":79.88410186767578},{"iata":"CMF","name":"Chambéry Aix les Bains airport","city":"Chambéry","cityCode":"CMF","country":"FR","continent":"EUME","zone":"EU","region":"ARA","lat":45.6381,"lon":5.88023},{"iata":"CMH","name":"John Glenn Columbus International Airport","city":"Columbus","cityCode":"CMH","country":"US","continent":"NA","region":"OH","lat":39.998001,"lon":-82.891899},{"iata":"CMI","name":"University of Illinois Willard Airport","city":"Savoy","cityCode":"CMI","country":"US","continent":"NA","region":"IL","lat":40.039819,"lon":-88.276249},{"iata":"CMN","name":"Mohammed V International Airport","city":"Casablanca","cityCode":"CMN","country":"MA","continent":"EUME","zone":"EU","region":"06","lat":33.3675,"lon":-7.58997},{"iata":"CMW","name":"Ignacio Agramonte International Airport","city":"Camaguey","cityCode":"CMW","country":"CU","continent":"NA","region":"09","lat":21.419909,"lon":-77.848039},{"iata":"CNJ","name":"Cloncurry Airport","city":"Cloncurry","cityCode":"CNJ","country":"AU","continent":"SWP","region":"QLD","lat":-20.668600082399998,"lon":140.503997803},{"iata":"CNS","name":"Cairns International Airport","city":"Cairns","cityCode":"CNS","country":"AU","continent":"SWP","region":"QLD","lat":-16.878921,"lon":145.74948},{"iata":"CNX","name":"Chiang Mai International Airport","city":"Chiang Mai","cityCode":"CNX","country":"TH","continent":"AS","region":"50","lat":18.766799926799997,"lon":98.962600708},{"iata":"COK","name":"Cochin International Airport","city":"Kochi","cityCode":"COK","country":"IN","continent":"AS","region":"KL","lat":10.151047,"lon":76.400838},{"iata":"COO","name":"Cotonou Cadjehoun International Airport","city":"Cotonou","cityCode":"COO","country":"BJ","continent":"AF","region":"AQ","lat":6.35723,"lon":2.38435},{"iata":"COS","name":"City of Colorado Springs Municipal Airport","city":"Colorado Springs","cityCode":"COS","country":"US","continent":"NA","region":"CO","lat":38.805801,"lon":-104.700996},{"iata":"COU","name":"Columbia Regional Airport","city":"Columbia","cityCode":"COU","country":"US","continent":"NA","region":"MO","lat":38.8181,"lon":-92.219597},{"iata":"CPH","name":"Copenhagen Kastrup Airport","city":"Copenhagen","cityCode":"CPH","country":"DK","continent":"EUME","zone":"EU","region":"84","lat":55.617900848389,"lon":12.656000137329},{"iata":"CPT","name":"Cape Town International Airport","city":"Cape Town","cityCode":"CPT","country":"ZA","continent":"AF","region":"WC","lat":-33.97403,"lon":18.604333},{"iata":"CRK","name":"Clark International Airport / Clark Air Base","city":"Mabalacat","cityCode":"CRK","country":"PH","continent":"AS","region":"PAM","lat":15.186,"lon":120.559998},{"iata":"CRP","name":"Corpus Christi International Airport","city":"Corpus Christi","cityCode":"CRP","country":"US","continent":"NA","region":"TX","lat":27.770399,"lon":-97.501198},{"iata":"CRW","name":"Yeager Airport","city":"Charleston","cityCode":"CRW","country":"US","continent":"NA","region":"WV","lat":38.3731,"lon":-81.593201},{"iata":"CSX","name":"Changsha Huanghua International Airport","city":"Changsha (Changsha)","cityCode":"CSX","country":"CN","continent":"AS","region":"43","lat":28.189199,"lon":113.220001},{"iata":"CTA","name":"Catania-Fontanarossa Airport","city":"Catania","cityCode":"CTA","country":"IT","continent":"EUME","zone":"EU","region":"82","lat":37.466801,"lon":15.0664},{"iata":"CTG","name":"Rafael Nuñez International Airport","city":"Cartagena","cityCode":"CTG","country":"CO","continent":"SA","region":"BOL","lat":10.4424,"lon":-75.513},{"iata":"CTS","name":"New Chitose Airport","city":"Sapporo","cityCode":"CTS","country":"JP","continent":"AS","region":"01","lat":42.774753,"lon":141.690414},{"iata":"CUN","name":"Cancún International Airport","city":"Cancún","cityCode":"CUN","country":"MX","continent":"NA","region":"ROO","lat":21.040817,"lon":-86.87347},{"iata":"CUR","name":"Hato International Airport","city":"Willemstad","cityCode":"CUR","country":"CW","continent":"NA","region":"U","lat":12.1889,"lon":-68.959801},{"iata":"CUU","name":"General Roberto Fierro Villalobos International Airport","city":"Chihuahua","cityCode":"CUU","country":"MX","continent":"NA","region":"CHH","lat":28.702649,"lon":-105.963764},{"iata":"CVG","name":"Cincinnati Northern Kentucky International Airport","city":"Cincinnati / Covington","cityCode":"CVG","country":"US","continent":"NA","region":"KY","lat":39.048801,"lon":-84.667801},{"iata":"CWA","name":"Central Wisconsin Airport","city":"Mosinee","cityCode":"CWA","country":"US","continent":"NA","region":"WI","lat":44.777448,"lon":-89.670238},{"iata":"CWL","name":"Cardiff International Airport","city":"Cardiff","cityCode":"CWL","country":"GB","continent":"EUME","zone":"EU","region":"WLS","lat":51.396702,"lon":-3.34333},{"iata":"CXI","name":"Cassidy International Airport","city":"Kiritimati","cityCode":"CXI","country":"KI","continent":"SWP","region":"L","lat":1.986278,"lon":-157.350011},{"iata":"CYO","name":"Vilo Acuña International Airport","city":"Cayo Largo del Sur","cityCode":"CYO","country":"CU","continent":"NA","region":"99","lat":21.6165008545,"lon":-81.5459976196},{"iata":"CZM","name":"Cozumel International Airport","city":"Cozumel","cityCode":"CZM","country":"MX","continent":"NA","region":"ROO","lat":20.514922,"lon":-86.928538},{"iata":"DAB","name":"Daytona Beach International Airport","city":"Daytona Beach","cityCode":"DAB","country":"US","continent":"NA","region":"FL","lat":29.18255,"lon":-81.059464},{"iata":"DAC","name":"Hazrat Shahjalal International Airport","city":"Dhaka","cityCode":"DAC","country":"BD","continent":"AS","region":"C","lat":23.843347,"lon":90.397783},{"iata":"DAD","name":"Da Nang International Airport","city":"Da Nang","cityCode":"DAD","country":"VN","continent":"AS","region":"SCC","lat":16.0439,"lon":108.198997},{"iata":"DAM","name":"Damascus International Airport","city":"Damascus","cityCode":"DAM","country":"SY","continent":"EUME","zone":"ME","region":"DI","lat":33.4114990234375,"lon":36.51559829711914},{"iata":"DAR","name":"Julius Nyerere International Airport","city":"Dar es Salaam","cityCode":"DAR","country":"TZ","continent":"AF","region":"02","lat":-6.873499,"lon":39.207288},{"iata":"DAY","name":"James M. Cox Dayton International Airport","city":"Dayton","cityCode":"DAY","country":"US","continent":"NA","region":"OH","lat":39.902401,"lon":-84.219398},{"iata":"DBO","name":"Dubbo City Regional Airport","city":"Dubbo","cityCode":"DBO","country":"AU","continent":"SWP","region":"NSW","lat":-32.2167015076,"lon":148.574996948},{"iata":"DBV","name":"Dubrovnik Ruđer Bošković Airport","city":"Dubrovnik","cityCode":"DBV","country":"HR","continent":"EUME","zone":"EU","region":"19","lat":42.562247,"lon":18.265543},{"iata":"DCA","name":"Ronald Reagan Washington National Airport","city":"Washington","cityCode":"WAS","country":"US","continent":"NA","region":"DC","lat":38.8521,"lon":-77.037697},{"iata":"DEL","name":"Indira Gandhi International Airport","city":"New Delhi","cityCode":"DEL","country":"IN","continent":"AS","region":"DL","lat":28.55563,"lon":77.09519},{"iata":"DEN","name":"Denver International Airport","city":"Denver","cityCode":"DEN","country":"US","continent":"NA","region":"CO","lat":39.860027,"lon":-104.673792},{"iata":"DFW","name":"Dallas Fort Worth International Airport","city":"Dallas-Fort Worth","cityCode":"DFW","country":"US","continent":"NA","region":"TX","lat":32.896801,"lon":-97.038002},{"iata":"DGO","name":"General Guadalupe Victoria International Airport","city":"Durango","cityCode":"DGO","country":"MX","continent":"NA","region":"DUR","lat":24.125468,"lon":-104.527938},{"iata":"DIA","name":"Doha International Airport","city":"Doha","cityCode":"DIA","country":"QA","continent":"EUME","zone":"ME","region":"DA","lat":25.259431,"lon":51.565528},{"iata":"DIL","name":"Presidente Nicolau Lobato International Airport","city":"Dili","cityCode":"DIL","country":"TL","continent":"AS","region":"DI","lat":-8.546562,"lon":125.524507},{"iata":"DLA","name":"Douala International Airport","city":"Douala","cityCode":"DLA","country":"CM","continent":"AF","region":"LT","lat":4.00608,"lon":9.71948},{"iata":"DLC","name":"Dalian Zhoushuizi International Airport","city":"Dalian (Ganjingzi)","cityCode":"DLC","country":"CN","continent":"AS","region":"21","lat":38.965719,"lon":121.538477},{"iata":"DLG","name":"Dillingham Airport","city":"Dillingham","cityCode":"DLG","country":"US","continent":"NA","region":"AK","lat":59.04470062,"lon":-158.5050049},{"iata":"DLM","name":"Dalaman International Airport","city":"Dalaman","cityCode":"DLM","country":"TR","continent":"EUME","zone":"EU","region":"48","lat":36.7131,"lon":28.7925},{"iata":"DME","name":"Domodedovo International Airport","city":"Moscow","cityCode":"MOW","country":"RU","continent":"EUME","zone":"EU","region":"MOS","lat":55.408798,"lon":37.9063},{"iata":"DMK","name":"Don Mueang International Airport","city":"Bangkok","cityCode":"BKK","country":"TH","continent":"AS","region":"10","lat":13.9126,"lon":100.607002},{"iata":"DMM","name":"King Fahd International Airport","city":"Ad Dammam","cityCode":"DMM","country":"SA","continent":"EUME","zone":"ME","region":"04","lat":26.4691,"lon":49.798209},{"iata":"DOH","name":"Hamad International Airport","city":"Doha","cityCode":"DOH","country":"QA","continent":"EUME","zone":"ME","region":"DA","lat":25.273056,"lon":51.608056},{"iata":"DOM","name":"Douglas-Charles Airport","city":"Marigot","cityCode":"DOM","country":"DM","continent":"NA","region":"02","lat":15.546673,"lon":-61.301082},{"iata":"DPO","name":"Devonport Airport","city":"Devonport","cityCode":"DPO","country":"AU","continent":"SWP","region":"TAS","lat":-41.1697006226,"lon":146.429992676},{"iata":"DPS","name":"Denpasar I Gusti Ngurah Rai International Airport","city":"Kuta, Badung","cityCode":"DPS","country":"ID","continent":"AS","region":"BA","lat":-8.748409,"lon":115.167123},{"iata":"DRO","name":"Durango La Plata County Airport","city":"Durango","cityCode":"DRO","country":"US","continent":"NA","region":"CO","lat":37.151501,"lon":-107.753998},{"iata":"DRW","name":"Darwin International Airport / RAAF Darwin","city":"Darwin","cityCode":"DRW","country":"AU","continent":"SWP","region":"NT","lat":-12.41497,"lon":130.88185},{"iata":"DSM","name":"Des Moines International Airport","city":"Des Moines","cityCode":"DSM","country":"US","continent":"NA","region":"IA","lat":41.534027,"lon":-93.656719},{"iata":"DSS","name":"Blaise Diagne International Airport","city":"Dakar","cityCode":"DSS","country":"SN","continent":"AF","region":"DK","lat":14.670878,"lon":-17.072829},{"iata":"DTW","name":"Detroit Metropolitan Wayne County Airport","city":"Detroit","cityCode":"DTW","country":"US","continent":"NA","region":"MI","lat":42.21377,"lon":-83.353786},{"iata":"DUB","name":"Dublin Airport","city":"Dublin","cityCode":"DUB","country":"IE","continent":"EUME","zone":"EU","region":"D","lat":53.428713,"lon":-6.262121},{"iata":"DUD","name":"Dunedin International Airport","city":"Dunedin","cityCode":"DUD","country":"NZ","continent":"SWP","region":"OTA","lat":-45.929017,"lon":170.197758},{"iata":"DUR","name":"King Shaka International Airport","city":"Durban","cityCode":"DUR","country":"ZA","continent":"AF","region":"NL","lat":-29.6144444444,"lon":31.1197222222},{"iata":"DUS","name":"Düsseldorf Airport","city":"Düsseldorf","cityCode":"DUS","country":"DE","continent":"EUME","zone":"EU","region":"NW","lat":51.289501,"lon":6.76678},{"iata":"DVO","name":"Francisco Bangoy International Airport","city":"Davao","cityCode":"DVO","country":"PH","continent":"AS","region":"DVO","lat":7.12552,"lon":125.646004},{"iata":"DXB","name":"Dubai International Airport","city":"Dubai","cityCode":"DXB","country":"AE","continent":"EUME","zone":"ME","region":"DU","lat":25.24979,"lon":55.370992},{"iata":"EAS","name":"San Sebastián Airport","city":"Hondarribia","cityCode":"EAS","country":"ES","continent":"EUME","zone":"EU","region":"PV","lat":43.356499,"lon":-1.79061},{"iata":"EAT","name":"Pangborn Memorial Airport","city":"Wenatchee","cityCode":"EAT","country":"US","continent":"NA","region":"WA","lat":47.398899,"lon":-120.207001},{"iata":"EBB","name":"Entebbe International Airport","city":"Entebbe","cityCode":"EBB","country":"UG","continent":"AF","region":"C","lat":0.042386,"lon":32.443501},{"iata":"EBL","name":"Erbil International Airport","city":"Arbil","cityCode":"EBL","country":"IQ","continent":"EUME","zone":"ME","region":"AR","lat":36.236047,"lon":43.946615},{"iata":"ECP","name":"Northwest Florida Beaches International Airport","city":"Panama City Beach","cityCode":"ECP","country":"US","continent":"NA","region":"FL","lat":30.357106,"lon":-85.795414},{"iata":"EDI","name":"Edinburgh Airport","city":"Edinburgh","cityCode":"EDI","country":"GB","continent":"EUME","zone":"EU","region":"SCT","lat":55.950145,"lon":-3.372288},{"iata":"EFL","name":"Kefallinia Airport","city":"Kefallinia Island","cityCode":"EFL","country":"GR","continent":"EUME","zone":"EU","region":"F","lat":38.12009811401367,"lon":20.500499725341797},{"iata":"EGC","name":"Bergerac Dordogne-Périgord airport","city":"Bergerac","cityCode":"EGC","country":"FR","continent":"EUME","zone":"EU","region":"NAQ","lat":44.825298,"lon":0.518611},{"iata":"EGE","name":"Eagle County Regional Airport","city":"Eagle","cityCode":"EGE","country":"US","continent":"NA","region":"CO","lat":39.64260101,"lon":-106.9179993},{"iata":"EIS","name":"Terrance B. Lettsome International Airport","city":"Beef Island","cityCode":"EIS","country":"VG","continent":"NA","region":"U","lat":18.445492,"lon":-64.541707},{"iata":"ELH","name":"North Eleuthera Airport","city":"North Eleuthera","cityCode":"ELH","country":"BS","continent":"NA","region":"HI","lat":25.475823,"lon":-76.680784},{"iata":"ELP","name":"El Paso International Airport","city":"El Paso","cityCode":"ELP","country":"US","continent":"NA","region":"TX","lat":31.809908,"lon":-106.375607},{"iata":"ELQ","name":"Prince Naif bin Abdulaziz International Airport","city":"Qassim","cityCode":"ELQ","country":"SA","continent":"EUME","zone":"ME","region":"05","lat":26.302799,"lon":43.774399},{"iata":"EMA","name":"East Midlands Airport","city":"Nottingham, Leicestershire","cityCode":"EMA","country":"GB","continent":"EUME","zone":"EU","region":"ENG","lat":52.8311,"lon":-1.32806},{"iata":"EMD","name":"Emerald Airport","city":"Emerald","cityCode":"EMD","country":"AU","continent":"SWP","region":"QLD","lat":-23.5674991608,"lon":148.179000854},{"iata":"ERH","name":"Moulay Ali Cherif Airport","city":"Errachidia","cityCode":"ERH","country":"MA","continent":"EUME","zone":"EU","region":"08","lat":31.9475002289,"lon":-4.39833021164},{"iata":"ERI","name":"Erie International Tom Ridge Field","city":"Erie","cityCode":"ERI","country":"US","continent":"NA","region":"PA","lat":42.083127,"lon":-80.173867},{"iata":"ESB","name":"Esenboğa International Airport","city":"Ankara","cityCode":"ESB","country":"TR","continent":"EUME","zone":"EU","region":"06","lat":40.128101,"lon":32.995098},{"iata":"EUG","name":"Eugene Airport","city":"Eugene","cityCode":"EUG","country":"US","continent":"NA","region":"OR","lat":44.124599,"lon":-123.211998},{"iata":"EUN","name":"Laayoune Hassan I International Airport","city":"El Aaiún","cityCode":"EUN","country":"EH","continent":"AF","region":"U","lat":27.142467,"lon":-13.224947},{"iata":"EVN","name":"Zvartnots International Airport","city":"Yerevan","cityCode":"EVN","country":"AM","continent":"EUME","zone":"EU","region":"ER","lat":40.148941,"lon":44.397887},{"iata":"EVV","name":"Evansville Regional Airport","city":"Evansville","cityCode":"EVV","country":"US","continent":"NA","region":"IN","lat":38.0369987488,"lon":-87.5324020386},{"iata":"EWN","name":"Coastal Carolina Regional Airport","city":"New Bern","cityCode":"EWN","country":"US","continent":"NA","region":"NC","lat":35.0730018616,"lon":-77.04290008539999},{"iata":"EWR","name":"Newark Liberty International Airport","city":"Newark","cityCode":"NYC","country":"US","continent":"NA","region":"NJ","lat":40.6894,"lon":-74.170545},{"iata":"EXT","name":"Exeter International Airport","city":"Exeter, Devon","cityCode":"EXT","country":"GB","continent":"EUME","zone":"EU","region":"ENG","lat":50.734261,"lon":-3.413984},{"iata":"EYW","name":"Key West International Airport","city":"Key West","cityCode":"EYW","country":"US","continent":"NA","region":"FL","lat":24.556119,"lon":-81.759579},{"iata":"EZE","name":"Ezeiza International Airport - Ministro Pistarini","city":"Buenos Aires (Ezeiza)","cityCode":"BUE","country":"AR","continent":"SA","region":"B","lat":-34.8222,"lon":-58.5358},{"iata":"FAI","name":"Fairbanks International Airport","city":"Fairbanks","cityCode":"FAI","country":"US","continent":"NA","region":"AK","lat":64.815102,"lon":-147.856003},{"iata":"FAO","name":"Faro - Gago Coutinho International Airport","city":"Faro","cityCode":"FAO","country":"PT","continent":"EUME","zone":"EU","region":"08","lat":37.015909,"lon":-7.970939},{"iata":"FAR","name":"Hector International Airport","city":"Fargo","cityCode":"FAR","country":"US","continent":"NA","region":"ND","lat":46.9207,"lon":-96.815804},{"iata":"FAT","name":"Fresno Yosemite International Airport","city":"Fresno","cityCode":"FAT","country":"US","continent":"NA","region":"CA","lat":36.775767,"lon":-119.718018},{"iata":"FAY","name":"Fayetteville Regional Airport - Grannis Field","city":"Fayetteville","cityCode":"FAY","country":"US","continent":"NA","region":"NC","lat":34.991199,"lon":-78.880302},{"iata":"FCA","name":"Glacier Park International Airport","city":"Kalispell","cityCode":"FCA","country":"US","continent":"NA","region":"MT","lat":48.310501,"lon":-114.255997},{"iata":"FCO","name":"Rome–Fiumicino Leonardo da Vinci International Airport","city":"Rome","cityCode":"ROM","country":"IT","continent":"EUME","zone":"EU","region":"62","lat":41.804532,"lon":12.251998},{"iata":"FDF","name":"Martinique Aimé Césaire International Airport","city":"Fort-de-France","cityCode":"FDF","country":"MQ","continent":"NA","region":"U","lat":14.591,"lon":-61.003201},{"iata":"FEZ","name":"Fes Saïss International Airport","city":"Saïss","cityCode":"FEZ","country":"MA","continent":"EUME","zone":"EU","region":"03","lat":33.927299,"lon":-4.97796},{"iata":"FIH","name":"Ndjili International Airport","city":"Kinshasa","cityCode":"FIH","country":"CD","continent":"AF","region":"KN","lat":-4.38575,"lon":15.4446},{"iata":"FLG","name":"Flagstaff Pulliam Airport","city":"Flagstaff","cityCode":"FLG","country":"US","continent":"NA","region":"AZ","lat":35.139757,"lon":-111.669826},{"iata":"FLL","name":"Fort Lauderdale Hollywood International Airport","city":"Fort Lauderdale","cityCode":"FLL","country":"US","continent":"NA","region":"FL","lat":26.072599,"lon":-80.152702},{"iata":"FLO","name":"Florence Regional Airport","city":"Florence","cityCode":"FLO","country":"US","continent":"NA","region":"SC","lat":34.18539810180664,"lon":-79.7238998413086},{"iata":"FLR","name":"Florence Airport, Peretola","city":"Firenze (FI)","cityCode":"FLR","country":"IT","continent":"EUME","zone":"EU","region":"52","lat":43.808558,"lon":11.202822},{"iata":"FNA","name":"Lungi International Airport","city":"Freetown (Lungi-Town)","cityCode":"FNA","country":"SL","continent":"AF","region":"N","lat":8.61644,"lon":-13.1955},{"iata":"FNC","name":"Cristiano Ronaldo International Airport","city":"Funchal","cityCode":"FNC","country":"PT","continent":"EUME","zone":"EU","region":"30","lat":32.697812,"lon":-16.774613},{"iata":"FNT","name":"Bishop International Airport","city":"Flint","cityCode":"FNT","country":"US","continent":"NA","region":"MI","lat":42.969294,"lon":-83.743355},{"iata":"FOC","name":"Fuzhou Changle International Airport","city":"Fuzhou (Changle)","cityCode":"FOC","country":"CN","continent":"AS","region":"35","lat":25.929254,"lon":119.672524},{"iata":"FOR","name":"Pinto Martins International Airport","city":"Fortaleza","cityCode":"FOR","country":"BR","continent":"SA","region":"CE","lat":-3.775833,"lon":-38.532222},{"iata":"FPO","name":"Grand Bahama International Airport","city":"Freeport","cityCode":"FPO","country":"BS","continent":"NA","region":"FP","lat":26.557996,"lon":-78.695583},{"iata":"FRA","name":"Frankfurt Main Airport","city":"Frankfurt am Main","cityCode":"FRA","country":"DE","continent":"EUME","zone":"EU","region":"HE","lat":50.026706,"lon":8.55835},{"iata":"FSC","name":"Figari Sud-Corse Airport","city":"Figari","cityCode":"FSC","country":"FR","continent":"EUME","zone":"EU","region":"COR","lat":41.50185,"lon":9.097092},{"iata":"FSD","name":"Sioux Falls Regional Airport","city":"Sioux Falls","cityCode":"FSD","country":"US","continent":"NA","region":"SD","lat":43.585463,"lon":-96.741152},{"iata":"FSM","name":"Fort Smith Regional Airport","city":"Fort Smith","cityCode":"FSM","country":"US","continent":"NA","region":"AR","lat":35.336601,"lon":-94.367401},{"iata":"FUE","name":"Fuerteventura Airport","city":"El Matorral","cityCode":"FUE","country":"ES","continent":"EUME","zone":"EU","region":"CN","lat":28.4527,"lon":-13.8638},{"iata":"FUK","name":"Fukuoka Airport","city":"Fukuoka","cityCode":"FUK","country":"JP","continent":"AS","region":"40","lat":33.585899353027344,"lon":130.4510040283203},{"iata":"FUN","name":"Funafuti International Airport","city":"Funafuti","cityCode":"FUN","country":"TV","continent":"SWP","region":"FUN","lat":-8.523885,"lon":179.196976},{"iata":"FWA","name":"Fort Wayne International Airport","city":"Fort Wayne","cityCode":"FWA","country":"US","continent":"NA","region":"IN","lat":40.978896,"lon":-85.194465},{"iata":"GAJ","name":"Yamagata Airport","city":"Higashine","cityCode":"GAJ","country":"JP","continent":"AS","region":"06","lat":38.4119,"lon":140.371002},{"iata":"GCI","name":"Guernsey Airport","city":"Saint Peter Port","cityCode":"GCI","country":"GG","continent":"EUME","zone":"EU","region":"G","lat":49.435001,"lon":-2.60197},{"iata":"GCK","name":"Garden City Regional Airport","city":"Garden City","cityCode":"GCK","country":"US","continent":"NA","region":"KS","lat":37.9275016785,"lon":-100.723999023},{"iata":"GCM","name":"Owen Roberts International Airport","city":"George Town","cityCode":"GCM","country":"KY","continent":"NA","region":"GC","lat":19.292801,"lon":-81.357697},{"iata":"GDL","name":"Guadalajara International Airport","city":"Guadalajara","cityCode":"GDL","country":"MX","continent":"NA","region":"JAL","lat":20.523342,"lon":-103.310108},{"iata":"GDN","name":"Gdańsk Lech Wałęsa Airport","city":"Gdańsk","cityCode":"GDN","country":"PL","continent":"EUME","zone":"EU","region":"PM","lat":54.377602,"lon":18.4662},{"iata":"GEG","name":"Spokane International Airport","city":"Spokane","cityCode":"GEG","country":"US","continent":"NA","region":"WA","lat":47.6199,"lon":-117.533997},{"iata":"GEO","name":"Cheddi Jagan International Airport","city":"Georgetown","cityCode":"GEO","country":"GY","continent":"SA","region":"DE","lat":6.49855,"lon":-58.254101},{"iata":"GET","name":"Geraldton Airport","city":"Moonyoonooka","cityCode":"GET","country":"AU","continent":"SWP","region":"WA","lat":-28.796101,"lon":114.707001},{"iata":"GFF","name":"Griffith Airport","city":"Griffith","cityCode":"GFF","country":"AU","continent":"SWP","region":"NSW","lat":-34.2508010864,"lon":146.067001343},{"iata":"GGG","name":"East Texas Regional Airport","city":"Longview","cityCode":"GGG","country":"US","continent":"NA","region":"TX","lat":32.38399887084961,"lon":-94.71150207519531},{"iata":"GGT","name":"Exuma International Airport","city":"Moss Town","cityCode":"GGT","country":"BS","continent":"NA","region":"EX","lat":23.562599,"lon":-75.877998},{"iata":"GHB","name":"Governor's Harbour Airport","city":"Governor's Harbour","cityCode":"GHB","country":"BS","continent":"NA","region":"CE","lat":25.2847,"lon":-76.331001},{"iata":"GIB","name":"Gibraltar Airport","city":"Gibraltar","cityCode":"GIB","country":"GI","continent":"EUME","zone":"EU","region":"U","lat":36.151679,"lon":-5.34978},{"iata":"GIG","name":"Rio Galeão – Tom Jobim International Airport","city":"Rio De Janeiro","cityCode":"RIO","country":"BR","continent":"SA","region":"RJ","lat":-22.809999,"lon":-43.250557},{"iata":"GJT","name":"Grand Junction Regional Airport","city":"Grand Junction","cityCode":"GJT","country":"US","continent":"NA","region":"CO","lat":39.126663,"lon":-108.529387},{"iata":"GLA","name":"Glasgow Airport","city":"Glasgow","cityCode":"GLA","country":"GB","continent":"EUME","zone":"EU","region":"SCT","lat":55.871899,"lon":-4.43306},{"iata":"GLT","name":"Gladstone Airport","city":"Gladstone","cityCode":"GLT","country":"AU","continent":"SWP","region":"QLD","lat":-23.869763,"lon":151.225439},{"iata":"GMP","name":"Seoul Gimpo International Airport","city":"Seoul","cityCode":"SEL","country":"KR","continent":"AS","region":"11","lat":37.5583,"lon":126.791},{"iata":"GNB","name":"Grenoble Alpes Isère Airport","city":"Grenoble","cityCode":"GNB","country":"FR","continent":"EUME","zone":"EU","region":"ARA","lat":45.3629,"lon":5.32937},{"iata":"GND","name":"Maurice Bishop International Airport","city":"Saint George's","cityCode":"GND","country":"GD","continent":"NA","region":"GE","lat":12.003996,"lon":-61.785302},{"iata":"GNV","name":"Gainesville Regional Airport","city":"Gainesville","cityCode":"GNV","country":"US","continent":"NA","region":"FL","lat":29.6900997162,"lon":-82.2717971802},{"iata":"GOT","name":"Göteborg Landvetter Airport","city":"Göteborg","cityCode":"GOT","country":"SE","continent":"EUME","zone":"EU","region":"Q","lat":57.6628,"lon":12.2798},{"iata":"GOX","name":"Manohar International Airport","city":"Mopa","cityCode":"GOX","country":"IN","continent":"AS","region":"GA","lat":15.744257,"lon":73.860625},{"iata":"GPT","name":"Gulfport Biloxi International Airport","city":"Gulfport","cityCode":"GPT","country":"US","continent":"NA","region":"MS","lat":30.405582,"lon":-89.069836},{"iata":"GRB","name":"Austin Straubel International Airport","city":"Green Bay","cityCode":"GRB","country":"US","continent":"NA","region":"WI","lat":44.483459,"lon":-88.130805},{"iata":"GRI","name":"Central Nebraska Regional Airport","city":"Grand Island","cityCode":"GRI","country":"US","continent":"NA","region":"NE","lat":40.967498779296875,"lon":-98.30960083007812},{"iata":"GRK","name":"Killeen Regional Airport / Robert Gray Army Airfield","city":"Fort Cavazos","cityCode":"GRK","country":"US","continent":"NA","region":"TX","lat":31.0672,"lon":-97.828903},{"iata":"GRO","name":"Girona-Costa Brava Airport","city":"Girona","cityCode":"GRO","country":"ES","continent":"EUME","zone":"EU","region":"CT","lat":41.904639,"lon":2.761774},{"iata":"GRR","name":"Gerald R. Ford International Airport","city":"Grand Rapids","cityCode":"GRR","country":"US","continent":"NA","region":"MI","lat":42.880798,"lon":-85.522797},{"iata":"GRU","name":"São Paulo/Guarulhos–Governor André Franco Montoro International Airport","city":"São Paulo","cityCode":"SAO","country":"BR","continent":"SA","region":"SP","lat":-23.431274,"lon":-46.469954},{"iata":"GRX","name":"F.G.L. Airport Granada-Jaén Airport","city":"Granada","cityCode":"GRX","country":"ES","continent":"EUME","zone":"EU","region":"AN","lat":37.188702,"lon":-3.77736},{"iata":"GRZ","name":"Graz Airport","city":"Feldkirchen bei Graz","cityCode":"GRZ","country":"AT","continent":"EUME","zone":"EU","region":"6","lat":46.9911,"lon":15.4396},{"iata":"GSO","name":"Piedmont Triad International Airport","city":"Greensboro","cityCode":"GSO","country":"US","continent":"NA","region":"NC","lat":36.09937,"lon":-79.937262},{"iata":"GSP","name":"Greenville-Spartanburg International Airport","city":"Greenville/Greer/Spartanburg","cityCode":"GSP","country":"US","continent":"NA","region":"SC","lat":34.895699,"lon":-82.218903},{"iata":"GST","name":"Gustavus Airport","city":"Gustavus","cityCode":"GST","country":"US","continent":"NA","region":"AK","lat":58.4253006,"lon":-135.7070007},{"iata":"GTF","name":"Great Falls International Airport","city":"Great Falls","cityCode":"GTF","country":"US","continent":"NA","region":"MT","lat":47.481998,"lon":-111.371002},{"iata":"GTR","name":"Golden Triangle Regional Airport","city":"Columbus/W Point/Starkville","cityCode":"GTR","country":"US","continent":"NA","region":"MS","lat":33.450298,"lon":-88.5914},{"iata":"GUA","name":"La Aurora International Airport","city":"Guatemala City","cityCode":"GUA","country":"GT","continent":"NA","region":"GU","lat":14.582896,"lon":-90.527515},{"iata":"GUC","name":"Gunnison Crested Butte Regional Airport","city":"Gunnison","cityCode":"GUC","country":"US","continent":"NA","region":"CO","lat":38.534672,"lon":-106.934566},{"iata":"GUM","name":"Antonio B. Won Pat International Airport","city":"Hagåtña","cityCode":"GUM","country":"GU","continent":"AS","region":"U","lat":13.485,"lon":144.797282},{"iata":"GVA","name":"Geneva International Airport","city":"Geneva","cityCode":"GVA","country":"CH","continent":"EUME","zone":"EU","region":"GE","lat":46.238098,"lon":6.10895},{"iata":"GYD","name":"Heydar Aliyev International Airport","city":"Baku","cityCode":"GYD","country":"AZ","continent":"EUME","zone":"EU","region":"BA","lat":40.47278,"lon":50.050931},{"iata":"GYE","name":"José Joaquín de Olmedo International Airport","city":"Guayaquil","cityCode":"GYE","country":"EC","continent":"SA","region":"G","lat":-2.15742,"lon":-79.883598},{"iata":"GZP","name":"Gazipaşa-Alanya Airport","city":"Gazipaşa","cityCode":"GZP","country":"TR","continent":"EUME","zone":"EU","region":"07","lat":36.298832,"lon":32.297017},{"iata":"HAJ","name":"Hannover Airport","city":"Hannover","cityCode":"HAJ","country":"DE","continent":"EUME","zone":"EU","region":"NI","lat":52.461102,"lon":9.68508},{"iata":"HAK","name":"Haikou Meilan International Airport","city":"Haikou (Meilan)","cityCode":"HAK","country":"CN","continent":"AS","region":"46","lat":19.9349,"lon":110.459},{"iata":"HAM","name":"Hamburg Helmut Schmidt Airport","city":"Hamburg","cityCode":"HAM","country":"DE","continent":"EUME","zone":"EU","region":"HH","lat":53.630402,"lon":9.98823},{"iata":"HAN","name":"Noi Bai International Airport","city":"Hanoi (Soc Son)","cityCode":"HAN","country":"VN","continent":"AS","region":"RRD","lat":21.221201,"lon":105.806999},{"iata":"HAS","name":"Hail International Airport","city":"Hail","cityCode":"HAS","country":"SA","continent":"EUME","zone":"ME","region":"06","lat":27.437901,"lon":41.686298},{"iata":"HAV","name":"José Martí International Airport","city":"Havana","cityCode":"HAV","country":"CU","continent":"NA","region":"03","lat":22.989200592041016,"lon":-82.40910339355469},{"iata":"HBE","name":"Alexandria International Airport","city":"Alexandria","cityCode":"HBE","country":"EG","continent":"EUME","zone":"ME","region":"ALX","lat":30.93249,"lon":29.696437},{"iata":"HBR","name":"Hobart Regional Airport","city":"Hobart","cityCode":"HBR","country":"US","continent":"NA","region":"OK","lat":34.991317,"lon":-99.051313},{"iata":"HDN","name":"Yampa Valley Airport","city":"Hayden","cityCode":"HDN","country":"US","continent":"NA","region":"CO","lat":40.481201,"lon":-107.218002},{"iata":"HDY","name":"Hat Yai International Airport","city":"Hat Yai","cityCode":"HDY","country":"TH","continent":"AS","region":"90","lat":6.93321,"lon":100.392998},{"iata":"HEL","name":"Helsinki Vantaa Airport","city":"Helsinki (Vantaa)","cityCode":"HEL","country":"FI","continent":"EUME","zone":"EU","region":"18","lat":60.318363,"lon":24.963341},{"iata":"HER","name":"Heraklion International Nikos Kazantzakis Airport","city":"Heraklion","cityCode":"HER","country":"GR","continent":"EUME","zone":"EU","region":"M","lat":35.339699,"lon":25.1803},{"iata":"HGH","name":"Hangzhou Xiaoshan International Airport","city":"Hangzhou","cityCode":"HGH","country":"CN","continent":"AS","region":"33","lat":30.23609,"lon":120.428865},{"iata":"HHH","name":"Hilton Head Airport","city":"Hilton Head Island","cityCode":"HHH","country":"US","continent":"NA","region":"SC","lat":32.2244,"lon":-80.697502},{"iata":"HID","name":"Horn Island Airport","city":"Horn","cityCode":"HID","country":"AU","continent":"SWP","region":"QLD","lat":-10.585636,"lon":142.29277},{"iata":"HIJ","name":"Hiroshima Airport","city":"Hiroshima","cityCode":"HIJ","country":"JP","continent":"AS","region":"34","lat":34.4361,"lon":132.919006},{"iata":"HIR","name":"Honiara International Airport","city":"Honiara","cityCode":"HIR","country":"SB","continent":"SWP","region":"GU","lat":-9.428,"lon":160.054993},{"iata":"HKD","name":"Hakodate Airport","city":"Hakodate","cityCode":"HKD","country":"JP","continent":"AS","region":"01","lat":41.77,"lon":140.822006},{"iata":"HKG","name":"Hong Kong International Airport","city":"Hong Kong","cityCode":"HKG","country":"HK","continent":"AS","region":"NT","lat":22.31184,"lon":113.914862},{"iata":"HKT","name":"Phuket International Airport","city":"Phuket","cityCode":"HKT","country":"TH","continent":"AS","region":"83","lat":8.113257,"lon":98.3174},{"iata":"HLN","name":"Helena Regional Airport","city":"Helena","cityCode":"HLN","country":"US","continent":"NA","region":"MT","lat":46.6068,"lon":-111.983002},{"iata":"HLZ","name":"Hamilton International Airport","city":"Hamilton","cityCode":"HLZ","country":"NZ","continent":"SWP","region":"WKO","lat":-37.866961,"lon":175.331952},{"iata":"HMO","name":"General Ignacio L. Pesqueira International Airport","city":"Hermosillo","cityCode":"HMO","country":"MX","continent":"NA","region":"SON","lat":29.092811,"lon":-111.053015},{"iata":"HNA","name":"Iwate Hanamaki Airport","city":"Hanamaki","cityCode":"HNA","country":"JP","continent":"AS","region":"03","lat":39.4286,"lon":141.134995},{"iata":"HND","name":"Tokyo Haneda International Airport","city":"Tokyo","cityCode":"TYO","country":"JP","continent":"AS","region":"13","lat":35.549678,"lon":139.786958},{"iata":"HNL","name":"Daniel K. Inouye International Airport","city":"Honolulu, Oahu","cityCode":"HNL","country":"US","continent":"NA","region":"HI","lat":21.318387,"lon":-157.92567},{"iata":"HOG","name":"Frank Pais International Airport","city":"Holguin","cityCode":"HOG","country":"CU","continent":"NA","region":"11","lat":20.785148,"lon":-76.315526},{"iata":"HOU","name":"William P. Hobby Airport","city":"Houston","cityCode":"HOU","country":"US","continent":"NA","region":"TX","lat":29.645336,"lon":-95.276812},{"iata":"HPN","name":"Westchester County Airport","city":"White Plains","cityCode":"HPN","country":"US","continent":"NA","region":"NY","lat":41.06700134277344,"lon":-73.70760345458984},{"iata":"HRE","name":"Robert Gabriel Mugabe International Airport","city":"Harare","cityCode":"HRE","country":"ZW","continent":"AF","region":"HA","lat":-17.931801,"lon":31.0928},{"iata":"HRL","name":"Valley International Airport","city":"Harlingen","cityCode":"HRL","country":"US","continent":"NA","region":"TX","lat":26.228500366210938,"lon":-97.65440368652344},{"iata":"HSV","name":"Huntsville International Airport","city":"Huntsville","cityCode":"HSV","country":"US","continent":"NA","region":"AL","lat":34.636244,"lon":-86.774378},{"iata":"HTI","name":"Hamilton Island Airport","city":"Hamilton Island","cityCode":"HTI","country":"AU","continent":"SWP","region":"QLD","lat":-20.3581008911,"lon":148.95199585},{"iata":"HTS","name":"Tri-State Airport / Milton J. Ferguson Field","city":"Huntington","cityCode":"HTS","country":"US","continent":"NA","region":"WV","lat":38.366699,"lon":-82.557999},{"iata":"HUX","name":"Bahías de Huatulco International Airport","city":"Huatulco","cityCode":"HUX","country":"MX","continent":"NA","region":"OAX","lat":15.775437,"lon":-96.260456},{"iata":"HVB","name":"Hervey Bay Airport","city":"Hervey Bay","cityCode":"HVB","country":"AU","continent":"SWP","region":"QLD","lat":-25.320127,"lon":152.880662},{"iata":"HYA","name":"Cape Cod Gateway Airport","city":"Hyannis","cityCode":"HYA","country":"US","continent":"NA","region":"MA","lat":41.6693,"lon":-70.280403},{"iata":"HYD","name":"Rajiv Gandhi International Airport","city":"Hyderabad","cityCode":"HYD","country":"IN","continent":"AS","region":"TG","lat":17.231318,"lon":78.429855},{"iata":"IAD","name":"Washington Dulles International Airport","city":"Dulles","cityCode":"WAS","country":"US","continent":"NA","region":"VA","lat":38.9445,"lon":-77.455803},{"iata":"IAH","name":"George Bush Intercontinental Airport","city":"Houston","cityCode":"IAH","country":"US","continent":"NA","region":"TX","lat":29.9844,"lon":-95.3414},{"iata":"IBZ","name":"Ibiza Airport","city":"Ibiza (Eivissa)","cityCode":"IBZ","country":"ES","continent":"EUME","zone":"EU","region":"IB","lat":38.872898,"lon":1.37312},{"iata":"ICI","name":"Cicia Airport","city":"Cicia","cityCode":"ICI","country":"FJ","continent":"SWP","region":"E","lat":-17.7432994843,"lon":-179.341995239},{"iata":"ICN","name":"Incheon International Airport","city":"Seoul","cityCode":"SEL","country":"KR","continent":"AS","region":"28","lat":37.469101,"lon":126.450996},{"iata":"ICT","name":"Wichita Dwight D. Eisenhower National Airport","city":"Wichita","cityCode":"ICT","country":"US","continent":"NA","region":"KS","lat":37.650314,"lon":-97.428583},{"iata":"IDA","name":"Idaho Falls Regional Airport","city":"Idaho Falls","cityCode":"IDA","country":"US","continent":"NA","region":"ID","lat":43.514599,"lon":-112.070999},{"iata":"IKA","name":"Imam Khomeini International Airport","city":"Tehran","cityCode":"IKA","country":"IR","continent":"EUME","zone":"ME","region":"23","lat":35.416099548339844,"lon":51.152198791503906},{"iata":"ILM","name":"Wilmington International Airport","city":"Wilmington","cityCode":"ILM","country":"US","continent":"NA","region":"NC","lat":34.272345,"lon":-77.905117},{"iata":"IND","name":"Indianapolis International Airport","city":"Indianapolis","cityCode":"IND","country":"US","continent":"NA","region":"IN","lat":39.7173,"lon":-86.294403},{"iata":"INN","name":"Innsbruck Airport","city":"Innsbruck","cityCode":"INN","country":"AT","continent":"EUME","zone":"EU","region":"7","lat":47.260201,"lon":11.344},{"iata":"INV","name":"Inverness Airport","city":"Inverness","cityCode":"INV","country":"GB","continent":"EUME","zone":"EU","region":"SCT","lat":57.5425,"lon":-4.0475},{"iata":"IOM","name":"Isle of Man Airport","city":"Castletown","cityCode":"IOM","country":"IM","continent":"EUME","zone":"EU","region":"U","lat":54.083081,"lon":-4.623871},{"iata":"ISA","name":"Mount Isa Airport","city":"Mount Isa","cityCode":"ISA","country":"AU","continent":"SWP","region":"QLD","lat":-20.66638,"lon":139.488468},{"iata":"ISB","name":"Islamabad International Airport","city":"Attock","cityCode":"ISB","country":"PK","continent":"AS","region":"PB","lat":33.549,"lon":72.82566},{"iata":"ISG","name":"New Ishigaki Airport","city":"Ishigaki","cityCode":"ISG","country":"JP","continent":"AS","region":"47","lat":24.396389,"lon":124.245},{"iata":"IST","name":"İstanbul Airport","city":"Istanbul","cityCode":"IST","country":"TR","continent":"EUME","zone":"EU","region":"34","lat":41.274874,"lon":28.732136},{"iata":"ISU","name":"Jalal Talabani International Airport","city":"Sulaymaniyah","cityCode":"ISU","country":"IQ","continent":"EUME","zone":"ME","region":"SW","lat":35.560487,"lon":45.315137},{"iata":"ITM","name":"Osaka Itami International Airport","city":"Osaka","cityCode":"OSA","country":"JP","continent":"AS","region":"27","lat":34.780853,"lon":135.440829},{"iata":"IVL","name":"Ivalo Airport","city":"Ivalo","cityCode":"IVL","country":"FI","continent":"EUME","zone":"EU","region":"10","lat":68.6073,"lon":27.4053},{"iata":"IZO","name":"Izumo Enmusubi Airport","city":"Izumo","cityCode":"IZO","country":"JP","continent":"AS","region":"32","lat":35.413601,"lon":132.889999},{"iata":"JAC","name":"Jackson Hole Airport","city":"Jackson","cityCode":"JAC","country":"US","continent":"NA","region":"WY","lat":43.6073,"lon":-110.737999},{"iata":"JAN","name":"Jackson-Medgar Wiley Evers International Airport","city":"Jackson","cityCode":"JAN","country":"US","continent":"NA","region":"MS","lat":32.311199,"lon":-90.075897},{"iata":"JAX","name":"Jacksonville International Airport","city":"Jacksonville","cityCode":"JAX","country":"US","continent":"NA","region":"FL","lat":30.492469,"lon":-81.687813},{"iata":"JED","name":"King Abdulaziz International Airport","city":"Jeddah","cityCode":"JED","country":"SA","continent":"EUME","zone":"ME","region":"02","lat":21.680241,"lon":39.157436},{"iata":"JER","name":"Jersey Airport","city":"St. Peter","cityCode":"JER","country":"JE","continent":"EUME","zone":"EU","region":"U","lat":49.207901,"lon":-2.19551},{"iata":"JFK","name":"John F. Kennedy International Airport","city":"New York","cityCode":"NYC","country":"US","continent":"NA","region":"NY","lat":40.639447,"lon":-73.779317},{"iata":"JHB","name":"Senai International Airport","city":"Johor Bahru","cityCode":"JHB","country":"MY","continent":"AS","region":"01","lat":1.64131,"lon":103.669998},{"iata":"JIB","name":"Djibouti-Ambouli Airport","city":"Djibouti City","cityCode":"JIB","country":"DJ","continent":"AF","region":"DJ","lat":11.5473,"lon":43.1595},{"iata":"JMK","name":"Mykonos Island National Airport","city":"Mykonos","cityCode":"JMK","country":"GR","continent":"EUME","zone":"EU","region":"L","lat":37.435101,"lon":25.348101},{"iata":"JNB","name":"O.R. Tambo International Airport","city":"Johannesburg","cityCode":"JNB","country":"ZA","continent":"AF","region":"GT","lat":-26.140081,"lon":28.246801},{"iata":"JNU","name":"Juneau International Airport","city":"Juneau","cityCode":"JNU","country":"US","continent":"NA","region":"AK","lat":58.354935,"lon":-134.574416},{"iata":"JOE","name":"Joensuu Airport","city":"Joensuu","cityCode":"JOE","country":"FI","continent":"EUME","zone":"EU","region":"13","lat":62.658815,"lon":29.619398},{"iata":"JRO","name":"Kilimanjaro International Airport","city":"Arusha","cityCode":"JRO","country":"TZ","continent":"AF","region":"01","lat":-3.427049,"lon":37.07353},{"iata":"JSI","name":"Skiathos Island National Airport","city":"Skiathos","cityCode":"JSI","country":"GR","continent":"EUME","zone":"EU","region":"E","lat":39.177101,"lon":23.5037},{"iata":"JTR","name":"Santorini International Airport","city":"Santorini Island","cityCode":"JTR","country":"GR","continent":"EUME","zone":"EU","region":"L","lat":36.400045,"lon":25.478638},{"iata":"JYV","name":"Jyväskylä Airport","city":"Jyväskylän Maalaiskunta","cityCode":"JYV","country":"FI","continent":"EUME","zone":"EU","region":"08","lat":62.399502,"lon":25.678301},{"iata":"KAJ","name":"Kajaani Airport","city":"Kajaani","cityCode":"KAJ","country":"FI","continent":"EUME","zone":"EU","region":"05","lat":64.2855,"lon":27.6924},{"iata":"KAN","name":"Mallam Aminu Kano International Airport","city":"Kano","cityCode":"KAN","country":"NG","continent":"AF","region":"KN","lat":12.045613,"lon":8.523566},{"iata":"KAO","name":"Kuusamo Airport","city":"Kuusamo","cityCode":"KAO","country":"FI","continent":"EUME","zone":"EU","region":"14","lat":65.987602,"lon":29.239401},{"iata":"KBR","name":"Sultan Ismail Petra Airport","city":"Kota Baharu","cityCode":"KBR","country":"MY","continent":"AS","region":"03","lat":6.1668500900268555,"lon":102.29299926757812},{"iata":"KBV","name":"Krabi International Airport","city":"Krabi","cityCode":"KBV","country":"TH","continent":"AS","region":"81","lat":8.095591,"lon":98.988955},{"iata":"KCH","name":"Kuching International Airport","city":"Kuching","cityCode":"KCH","country":"MY","continent":"AS","region":"13","lat":1.487364,"lon":110.352859},{"iata":"KCZ","name":"Kochi Ryoma Airport","city":"Nankoku","cityCode":"KCZ","country":"JP","continent":"AS","region":"39","lat":33.545217,"lon":133.670166},{"iata":"KDV","name":"Vunisea Airport","city":"Vunisea","cityCode":"KDV","country":"FJ","continent":"SWP","region":"E","lat":-19.058099746699998,"lon":178.156997681},{"iata":"KEF","name":"Keflavik International Airport","city":"Reykjavík","cityCode":"KEF","country":"IS","continent":"EUME","zone":"EU","region":"2","lat":63.985001,"lon":-22.6056},{"iata":"KEM","name":"Kemi-Tornio Airport","city":"Kemi / Tornio","cityCode":"KEM","country":"FI","continent":"EUME","zone":"EU","region":"10","lat":65.778701782227,"lon":24.582099914551},{"iata":"KGC","name":"Kingscote Airport","city":"Kingscote Airport","cityCode":"KGC","country":"AU","continent":"SWP","region":"SA","lat":-35.71390151977539,"lon":137.52099609375},{"iata":"KGI","name":"Kalgoorlie Boulder Airport","city":"Broadwood","cityCode":"KGI","country":"AU","continent":"SWP","region":"WA","lat":-30.791543,"lon":121.464586},{"iata":"KGL","name":"Kigali International Airport","city":"Kigali","cityCode":"KGL","country":"RW","continent":"AF","region":"01","lat":-1.96863,"lon":30.1395},{"iata":"KGS","name":"Kos International Airport \"Ippokratis\"","city":"Kos Island","cityCode":"KGS","country":"GR","continent":"EUME","zone":"EU","region":"L","lat":36.794523,"lon":27.09115},{"iata":"KHH","name":"Kaohsiung International Airport","city":"Kaohsiung (Xiaogang)","cityCode":"KHH","country":"TW","continent":"AS","region":"KHH","lat":22.577101,"lon":120.349998},{"iata":"KHI","name":"Jinnah International Airport","city":"Karachi","cityCode":"KHI","country":"PK","continent":"AS","region":"SD","lat":24.9065,"lon":67.160797},{"iata":"KHS","name":"Khasab Airport","city":"Khasab","cityCode":"KHS","country":"OM","continent":"EUME","zone":"ME","region":"MU","lat":26.171,"lon":56.240601},{"iata":"KIJ","name":"Niigata Airport","city":"Niigata","cityCode":"KIJ","country":"JP","continent":"AS","region":"15","lat":37.954166,"lon":139.112189},{"iata":"KIN","name":"Norman Manley International Airport","city":"Kingston","cityCode":"KIN","country":"JM","continent":"NA","region":"01","lat":17.935699462890625,"lon":-76.7874984741211},{"iata":"KIX","name":"Kansai International Airport","city":"Osaka","cityCode":"OSA","country":"JP","continent":"AS","region":"27","lat":34.427299,"lon":135.244003},{"iata":"KKJ","name":"Kitakyushu Airport","city":"Kitakyushu","cityCode":"KKJ","country":"JP","continent":"AS","region":"40","lat":33.845901,"lon":131.035004},{"iata":"KKN","name":"Kirkenes Airport, Høybuktmoen","city":"Kirkenes","cityCode":"KKN","country":"NO","continent":"EUME","zone":"EU","region":"56","lat":69.7258,"lon":29.8913},{"iata":"KKX","name":"Kikai Airport","city":"Kikai","cityCode":"KKX","country":"JP","continent":"AS","region":"46","lat":28.321300506599997,"lon":129.927993774},{"iata":"KLX","name":"Kalamata Airport","city":"Kalamata","cityCode":"KLX","country":"GR","continent":"EUME","zone":"EU","region":"J","lat":37.06829833984375,"lon":22.02549934387207},{"iata":"KMI","name":"Miyazaki Airport","city":"Miyazaki","cityCode":"KMI","country":"JP","continent":"AS","region":"45","lat":31.877199,"lon":131.449005},{"iata":"KMJ","name":"Kumamoto Airport","city":"Kumamoto","cityCode":"KMJ","country":"JP","continent":"AS","region":"43","lat":32.837299,"lon":130.854996},{"iata":"KMQ","name":"Komatsu Airport / JASDF Komatsu Air Base","city":"Kanazawa","cityCode":"KMQ","country":"JP","continent":"AS","region":"17","lat":36.393407,"lon":136.406895},{"iata":"KOA","name":"Ellison Onizuka Kona International Airport at Keāhole","city":"Kailua-Kona","cityCode":"KOA","country":"US","continent":"NA","region":"HI","lat":19.738783,"lon":-156.045603},{"iata":"KOJ","name":"Kagoshima Airport","city":"Kagoshima","cityCode":"KOJ","country":"JP","continent":"AS","region":"46","lat":31.8034,"lon":130.718994},{"iata":"KOK","name":"Kokkola-Pietarsaari Airport","city":"Kokkola / Kruunupyy","cityCode":"KOK","country":"FI","continent":"EUME","zone":"EU","region":"07","lat":63.721199,"lon":23.143101},{"iata":"KRK","name":"Kraków John Paul II International Airport","city":"Balice","cityCode":"KRK","country":"PL","continent":"EUME","zone":"EU","region":"MA","lat":50.077702,"lon":19.7848},{"iata":"KTA","name":"Karratha Airport","city":"Karratha","cityCode":"KTA","country":"AU","continent":"SWP","region":"WA","lat":-20.712200164799995,"lon":116.773002625},{"iata":"KTI","name":"Techo International Airport","city":"Phnom Penh (Boeng Khyang)","cityCode":"KTI","country":"KH","continent":"AS","region":"8","lat":11.359987,"lon":104.921272},{"iata":"KTM","name":"Tribhuvan International Airport","city":"Kathmandu","cityCode":"KTM","country":"NP","continent":"AS","region":"P3","lat":27.6966,"lon":85.3591},{"iata":"KTN","name":"Ketchikan International Airport","city":"Ketchikan","cityCode":"KTN","country":"US","continent":"NA","region":"AK","lat":55.35559845,"lon":-131.7140045},{"iata":"KTT","name":"Kittilä International Airport","city":"Kittilä","cityCode":"KTT","country":"FI","continent":"EUME","zone":"EU","region":"10","lat":67.700996,"lon":24.8468},{"iata":"KUA","name":"Kuantan Airport","city":"Kuantan","cityCode":"KUA","country":"MY","continent":"AS","region":"06","lat":3.7753899097442627,"lon":103.20899963378906},{"iata":"KUH","name":"Kushiro Airport","city":"Kushiro","cityCode":"KUH","country":"JP","continent":"AS","region":"01","lat":43.041,"lon":144.192993},{"iata":"KUL","name":"Kuala Lumpur International Airport","city":"Sepang","cityCode":"KUL","country":"MY","continent":"AS","region":"10","lat":2.74558,"lon":101.709999},{"iata":"KUM","name":"Yakushima Airport","city":"Yakushima","cityCode":"KUM","country":"JP","continent":"AS","region":"46","lat":30.385599,"lon":130.658997},{"iata":"KUO","name":"Kuopio Airport","city":"Kuopio / Siilinjärvi","cityCode":"KUO","country":"FI","continent":"EUME","zone":"EU","region":"15","lat":63.007099,"lon":27.7978},{"iata":"KWI","name":"Kuwait International Airport","city":"Kuwait City","cityCode":"KWI","country":"KW","continent":"EUME","zone":"ME","region":"FA","lat":29.224487,"lon":47.969813},{"iata":"KXF","name":"Koro Island Airport","city":"Koro Island","cityCode":"KXF","country":"FJ","continent":"SWP","region":"E","lat":-17.3458003998,"lon":179.42199707},{"iata":"LAD","name":"Quatro de Fevereiro International Airport","city":"Luanda","cityCode":"LAD","country":"AO","continent":"AF","region":"LUA","lat":-8.85837,"lon":13.2312},{"iata":"LAN","name":"Capital Region International Airport","city":"Lansing","cityCode":"LAN","country":"US","continent":"NA","region":"MI","lat":42.777582,"lon":-84.585721},{"iata":"LAP","name":"Manuel Márquez de León International Airport","city":"La Paz","cityCode":"LAP","country":"MX","continent":"NA","region":"BCS","lat":24.072331,"lon":-110.362662},{"iata":"LAS","name":"Harry Reid International Airport","city":"Las Vegas","cityCode":"LAS","country":"US","continent":"NA","region":"NV","lat":36.083361,"lon":-115.151817},{"iata":"LAW","name":"Lawton Fort Sill Regional Airport","city":"Lawton","cityCode":"LAW","country":"US","continent":"NA","region":"OK","lat":34.567699,"lon":-98.416603},{"iata":"LAX","name":"Los Angeles International Airport","city":"Los Angeles","cityCode":"LAX","country":"US","continent":"NA","region":"CA","lat":33.942501,"lon":-118.407997},{"iata":"LBA","name":"Leeds Bradford Airport","city":"Leeds, West Yorkshire","cityCode":"LBA","country":"GB","continent":"EUME","zone":"EU","region":"ENG","lat":53.865898,"lon":-1.66057},{"iata":"LBB","name":"Lubbock Preston Smith International Airport","city":"Lubbock","cityCode":"LBB","country":"US","continent":"NA","region":"TX","lat":33.663601,"lon":-101.822998},{"iata":"LBS","name":"Labasa Airport","city":"Labasa","cityCode":"LBS","country":"FJ","continent":"SWP","region":"N","lat":-16.4667,"lon":179.339996},{"iata":"LBU","name":"Labuan Airport","city":"Labuan","cityCode":"LBU","country":"MY","continent":"AS","region":"15","lat":5.301667,"lon":115.248333},{"iata":"LBV","name":"Libreville Leon M'ba International Airport","city":"Libreville","cityCode":"LBV","country":"GA","continent":"AF","region":"1","lat":0.458951,"lon":9.41214},{"iata":"LCA","name":"Larnaca International Airport","city":"Larnaca","cityCode":"LCA","country":"CY","continent":"EUME","zone":"EU","region":"04","lat":34.875099,"lon":33.624901},{"iata":"LCG","name":"A Coruña Airport","city":"Culleredo","cityCode":"LCG","country":"ES","continent":"EUME","zone":"EU","region":"GA","lat":43.302101,"lon":-8.37726},{"iata":"LCH","name":"Lake Charles Regional Airport","city":"Lake Charles","cityCode":"LCH","country":"US","continent":"NA","region":"LA","lat":30.126100540161133,"lon":-93.22329711914062},{"iata":"LCY","name":"London City Airport","city":"London","cityCode":"LON","country":"GB","continent":"EUME","zone":"EU","region":"ENG","lat":51.505299,"lon":0.055278},{"iata":"LEA","name":"Learmonth Airport","city":"Exmouth","cityCode":"LEA","country":"AU","continent":"SWP","region":"WA","lat":-22.235201,"lon":114.090024},{"iata":"LED","name":"Pulkovo Airport","city":"St. Petersburg","cityCode":"LED","country":"RU","continent":"EUME","zone":"EU","region":"SPE","lat":59.800301,"lon":30.262501},{"iata":"LEI","name":"Almería Airport","city":"Almería","cityCode":"LEI","country":"ES","continent":"EUME","zone":"EU","region":"AN","lat":36.843899,"lon":-2.3701},{"iata":"LEN","name":"León Airport","city":"La Virgen del Camino","cityCode":"LEN","country":"ES","continent":"EUME","zone":"EU","region":"CL","lat":42.590709,"lon":-5.653406},{"iata":"LEU","name":"Pirineus - la Seu d'Urgel Airport","city":"La Seu d'Urgell Pyrenees and Andorra","cityCode":"LEU","country":"ES","continent":"EUME","zone":"EU","region":"CT","lat":42.3386,"lon":1.40917},{"iata":"LEX","name":"Blue Grass Airport","city":"Lexington","cityCode":"LEX","country":"US","continent":"NA","region":"KY","lat":38.035066,"lon":-84.606738},{"iata":"LFT","name":"Lafayette Regional Airport","city":"Lafayette","cityCode":"LFT","country":"US","continent":"NA","region":"LA","lat":30.205299,"lon":-91.987602},{"iata":"LFW","name":"Lomé–Tokoin International Airport","city":"Lomé","cityCode":"LFW","country":"TG","continent":"AF","region":"M","lat":6.16561,"lon":1.25451},{"iata":"LGA","name":"LaGuardia Airport","city":"New York","cityCode":"NYC","country":"US","continent":"NA","region":"NY","lat":40.777199,"lon":-73.872597},{"iata":"LGB","name":"Long Beach International Airport","city":"Long Beach","cityCode":"LGB","country":"US","continent":"NA","region":"CA","lat":33.816523,"lon":-118.149891},{"iata":"LGK","name":"Langkawi International Airport","city":"Langkawi","cityCode":"LGK","country":"MY","continent":"AS","region":"02","lat":6.32973,"lon":99.728699},{"iata":"LGW","name":"London Gatwick Airport","city":"London","cityCode":"LON","country":"GB","continent":"EUME","zone":"EU","region":"ENG","lat":51.148744,"lon":-0.185739},{"iata":"LHE","name":"Allama Iqbal International Airport","city":"Lahore","cityCode":"LHE","country":"PK","continent":"AS","region":"PB","lat":31.521601,"lon":74.403603},{"iata":"LHR","name":"London Heathrow Airport","city":"London","cityCode":"LON","country":"GB","continent":"EUME","zone":"EU","region":"ENG","lat":51.470748,"lon":-0.459909},{"iata":"LIH","name":"Lihue Airport","city":"Lihue, Kauai","cityCode":"LIH","country":"US","continent":"NA","region":"HI","lat":21.974393,"lon":-159.337146},{"iata":"LIM","name":"Jorge Chávez International Airport","city":"Lima","cityCode":"LIM","country":"PE","continent":"SA","region":"LIM","lat":-12.0219,"lon":-77.114305},{"iata":"LIN","name":"Milano Linate Airport","city":"Segrate (MI)","cityCode":"MIL","country":"IT","continent":"EUME","zone":"EU","region":"25","lat":45.445099,"lon":9.27674},{"iata":"LIR","name":"Daniel Oduber Quirós International Airport","city":"Liberia","cityCode":"LIR","country":"CR","continent":"NA","region":"G","lat":10.5933,"lon":-85.544403},{"iata":"LIS","name":"Lisbon Humberto Delgado Airport","city":"Lisbon","cityCode":"LIS","country":"PT","continent":"EUME","zone":"EU","region":"11","lat":38.7813,"lon":-9.13592},{"iata":"LIT","name":"Bill & Hillary Clinton National Airport/Adams Field","city":"Little Rock","cityCode":"LIT","country":"US","continent":"NA","region":"AR","lat":34.729222,"lon":-92.223591},{"iata":"LJU","name":"Ljubljana Jože Pučnik Airport","city":"Zgornji Brnik","cityCode":"LJU","country":"SI","continent":"EUME","zone":"EU","region":"012","lat":46.223701,"lon":14.4576},{"iata":"LKB","name":"Lakeba Island Airport","city":"Lakeba Island","cityCode":"LKB","country":"FJ","continent":"SWP","region":"E","lat":-18.1991996765,"lon":-178.817001343},{"iata":"LKO","name":"Chaudhary Charan Singh International Airport","city":"Lucknow","cityCode":"LKO","country":"IN","continent":"AS","region":"UP","lat":26.760599,"lon":80.889297},{"iata":"LNK","name":"Lincoln Airport","city":"Lincoln","cityCode":"LNK","country":"US","continent":"NA","region":"NE","lat":40.844882,"lon":-96.76178},{"iata":"LOS","name":"Murtala Muhammed International Airport","city":"Lagos","cityCode":"LOS","country":"NG","continent":"AF","region":"LA","lat":6.57737,"lon":3.32116},{"iata":"LPA","name":"Gran Canaria Airport","city":"Gran Canaria Island","cityCode":"LPA","country":"ES","continent":"EUME","zone":"EU","region":"CN","lat":27.9319,"lon":-15.3866},{"iata":"LPL","name":"Liverpool John Lennon Airport","city":"Liverpool","cityCode":"LPL","country":"GB","continent":"EUME","zone":"EU","region":"ENG","lat":53.334863,"lon":-2.849637},{"iata":"LPQ","name":"Luang Phabang International Airport","city":"Luang Phabang","cityCode":"LPQ","country":"LA","continent":"AS","region":"LP","lat":19.904273,"lon":102.167191},{"iata":"LRD","name":"Laredo International Airport","city":"Laredo","cityCode":"LRD","country":"US","continent":"NA","region":"TX","lat":27.5438,"lon":-99.461601},{"iata":"LRE","name":"Longreach Airport","city":"Longreach","cityCode":"LRE","country":"AU","continent":"SWP","region":"QLD","lat":-23.4342,"lon":144.279999},{"iata":"LRM","name":"Casa De Campo International Airport","city":"La Romana","cityCode":"LRM","country":"DO","continent":"NA","region":"12","lat":18.452222,"lon":-68.911111},{"iata":"LSE","name":"La Crosse Regional Airport","city":"La Crosse","cityCode":"LSE","country":"US","continent":"NA","region":"WI","lat":43.879002,"lon":-91.256699},{"iata":"LST","name":"Launceston Airport","city":"Launceston (Western Junction)","cityCode":"LST","country":"AU","continent":"SWP","region":"TAS","lat":-41.544935,"lon":147.210785},{"iata":"LTO","name":"Loreto International Airport","city":"Loreto","cityCode":"LTO","country":"MX","continent":"NA","region":"BCS","lat":25.989549,"lon":-111.348408},{"iata":"LUN","name":"Kenneth Kaunda International Airport","city":"Lusaka","cityCode":"LUN","country":"ZM","continent":"AF","region":"09","lat":-15.330833,"lon":28.452722},{"iata":"LUX","name":"Luxembourg-Findel International Airport","city":"Luxembourg","cityCode":"LUX","country":"LU","continent":"EUME","zone":"EU","region":"L","lat":49.626845,"lon":6.212134},{"iata":"LWB","name":"Greenbrier Valley Airport","city":"Lewisburg","cityCode":"LWB","country":"US","continent":"NA","region":"WV","lat":37.857914,"lon":-80.400438},{"iata":"LXS","name":"Limnos Airport","city":"Limnos Island","cityCode":"LXS","country":"GR","continent":"EUME","zone":"EU","region":"K","lat":39.917098999,"lon":25.236299514799995},{"iata":"LYH","name":"Lynchburg Regional Airport - Preston Glenn Field","city":"Lynchburg","cityCode":"LYH","country":"US","continent":"NA","region":"VA","lat":37.326698,"lon":-79.200401},{"iata":"LYP","name":"Faisalabad International Airport","city":"Faisalabad","cityCode":"LYP","country":"PK","continent":"AS","region":"PB","lat":31.364923,"lon":72.995319},{"iata":"LYS","name":"Lyon Saint-Exupéry Airport","city":"Colombier-Saugnieu, Rhône","cityCode":"LYS","country":"FR","continent":"EUME","zone":"EU","region":"ARA","lat":45.725996,"lon":5.090139},{"iata":"MAA","name":"Chennai International Airport","city":"Chennai","cityCode":"MAA","country":"IN","continent":"AS","region":"TN","lat":12.990005,"lon":80.169296},{"iata":"MAD","name":"Adolfo Suárez Madrid–Barajas Airport","city":"Madrid","cityCode":"MAD","country":"ES","continent":"EUME","zone":"EU","region":"MD","lat":40.493407,"lon":-3.572249},{"iata":"MAF","name":"Midland International Air and Space Port","city":"Midland","cityCode":"MAF","country":"US","continent":"NA","region":"TX","lat":31.942499,"lon":-102.202003},{"iata":"MAH","name":"Menorca Airport","city":"Mahón (Maó)","cityCode":"MAH","country":"ES","continent":"EUME","zone":"EU","region":"IB","lat":39.862598,"lon":4.21865},{"iata":"MAN","name":"Manchester Airport","city":"Manchester, Greater Manchester","cityCode":"MAN","country":"GB","continent":"EUME","zone":"EU","region":"ENG","lat":53.349375,"lon":-2.279521},{"iata":"MAR","name":"La Chinita International Airport","city":"Maracaibo","cityCode":"MAR","country":"VE","continent":"SA","region":"V","lat":10.557542,"lon":-71.729307},{"iata":"MBJ","name":"Sangster International Airport","city":"Montego Bay","cityCode":"MBJ","country":"JM","continent":"NA","region":"08","lat":18.50342,"lon":-77.91323},{"iata":"MCI","name":"Kansas City International Airport","city":"Kansas City","cityCode":"MCI","country":"US","continent":"NA","region":"MO","lat":39.301699,"lon":-94.713893},{"iata":"MCO","name":"Orlando International Airport","city":"Orlando","cityCode":"MCO","country":"US","continent":"NA","region":"FL","lat":28.429399490356445,"lon":-81.30899810791016},{"iata":"MCT","name":"Muscat International Airport","city":"Muscat/Seeb","cityCode":"MCT","country":"OM","continent":"EUME","zone":"ME","region":"MA","lat":23.600218,"lon":58.285268},{"iata":"MCY","name":"Sunshine Coast Airport","city":"Maroochydore","cityCode":"MCY","country":"AU","continent":"SWP","region":"QLD","lat":-26.593324,"lon":153.08319},{"iata":"MDE","name":"Jose Maria Córdova International Airport","city":"Medellín","cityCode":"MDE","country":"CO","continent":"SA","region":"ANT","lat":6.16454,"lon":-75.4231},{"iata":"MDT","name":"Harrisburg International Airport","city":"Harrisburg","cityCode":"MDT","country":"US","continent":"NA","region":"PA","lat":40.192838,"lon":-76.762333},{"iata":"MED","name":"Prince Mohammad Bin Abdulaziz Airport","city":"Medina","cityCode":"MED","country":"SA","continent":"EUME","zone":"ME","region":"03","lat":24.5534,"lon":39.705101},{"iata":"MEL","name":"Melbourne Airport","city":"Melbourne","cityCode":"MEL","country":"AU","continent":"SWP","region":"VIC","lat":-37.670732,"lon":144.837898},{"iata":"MEM","name":"Memphis International Airport","city":"Memphis","cityCode":"MEM","country":"US","continent":"NA","region":"TN","lat":35.043845,"lon":-89.97634},{"iata":"MEX","name":"Mexico City Benito Juárez International Airport","city":"Mexico City","cityCode":"MEX","country":"MX","continent":"NA","region":"DIF","lat":19.435822,"lon":-99.07033},{"iata":"MFE","name":"McAllen Miller International Airport","city":"McAllen","cityCode":"MFE","country":"US","continent":"NA","region":"TX","lat":26.176141,"lon":-98.237965},{"iata":"MFR","name":"Rogue Valley International-Medford Airport","city":"Medford","cityCode":"MFR","country":"US","continent":"NA","region":"OR","lat":42.374199,"lon":-122.873001},{"iata":"MGA","name":"Augusto C. Sandino (Managua) International Airport","city":"Managua","cityCode":"MGA","country":"NI","continent":"NA","region":"MN","lat":12.1415,"lon":-86.168198},{"iata":"MGM","name":"Montgomery Regional (Dannelly Field) Airport","city":"Montgomery","cityCode":"MGM","country":"US","continent":"NA","region":"AL","lat":32.300598,"lon":-86.393997},{"iata":"MGQ","name":"Aden Adde International Airport","city":"Mogadishu","cityCode":"MGQ","country":"SO","continent":"AF","region":"BN","lat":2.01444,"lon":45.304699},{"iata":"MHD","name":"Mashhad International Airport","city":"Mashhad","cityCode":"MHD","country":"IR","continent":"EUME","zone":"ME","region":"09","lat":36.234821,"lon":59.642949},{"iata":"MHH","name":"Leonard M. Thompson International Airport","city":"Marsh Harbour","cityCode":"MHH","country":"BS","continent":"NA","region":"CO","lat":26.510711,"lon":-77.084262},{"iata":"MHK","name":"Manhattan Regional Airport","city":"Manhattan","cityCode":"MHK","country":"US","continent":"NA","region":"KS","lat":39.14099884033203,"lon":-96.6707992553711},{"iata":"MHQ","name":"Mariehamn Airport","city":"Mariehamn","cityCode":"MHQ","country":"FI","continent":"EUME","zone":"EU","region":"01","lat":60.1222,"lon":19.898199},{"iata":"MHT","name":"Manchester-Boston Regional Airport","city":"Manchester","cityCode":"MHT","country":"US","continent":"NA","region":"NH","lat":42.932598,"lon":-71.435699},{"iata":"MIA","name":"Miami International Airport","city":"Miami","cityCode":"MIA","country":"US","continent":"NA","region":"FL","lat":25.796011,"lon":-80.289751},{"iata":"MID","name":"Manuel Crescencio Rejón International Airport","city":"Mérida","cityCode":"MID","country":"MX","continent":"NA","region":"YUC","lat":20.930485,"lon":-89.645462},{"iata":"MIM","name":"Merimbula Airport","city":"Merimbula","cityCode":"MIM","country":"AU","continent":"SWP","region":"NSW","lat":-36.9085998535,"lon":149.901000977},{"iata":"MJI","name":"Mitiga International Airport","city":"Tripoli","cityCode":"MJI","country":"LY","continent":"EUME","zone":"ME","region":"TB","lat":32.89177,"lon":13.287878},{"iata":"MKE","name":"General Mitchell International Airport","city":"Milwaukee","cityCode":"MKE","country":"US","continent":"NA","region":"WI","lat":42.947201,"lon":-87.896599},{"iata":"MKY","name":"Mackay Airport","city":"Mackay","cityCode":"MKY","country":"AU","continent":"SWP","region":"QLD","lat":-21.170816,"lon":149.182588},{"iata":"MLA","name":"Malta International Airport","city":"Valletta","cityCode":"MLA","country":"MT","continent":"EUME","zone":"EU","region":"25","lat":35.845932,"lon":14.491546},{"iata":"MLB","name":"Melbourne Orlando International Airport","city":"Melbourne","cityCode":"MLB","country":"US","continent":"NA","region":"FL","lat":28.102009,"lon":-80.641088},{"iata":"MLE","name":"Velana International Airport","city":"Malé","cityCode":"MLE","country":"MV","continent":"AS","region":"MLE","lat":4.19183,"lon":73.529099},{"iata":"MLI","name":"Quad City International Airport","city":"Moline","cityCode":"MLI","country":"US","continent":"NA","region":"IL","lat":41.448502,"lon":-90.5075},{"iata":"MLM","name":"General Francisco J. Mujica International Airport","city":"Morelia","cityCode":"MLM","country":"MX","continent":"NA","region":"MIC","lat":19.849899,"lon":-101.025002},{"iata":"MLN","name":"Melilla Airport","city":"Melilla","cityCode":"MLN","country":"ES","continent":"EUME","zone":"EU","region":"ML","lat":35.2798,"lon":-2.95626},{"iata":"MLU","name":"Monroe Regional Airport","city":"Monroe","cityCode":"MLU","country":"US","continent":"NA","region":"LA","lat":32.510899,"lon":-92.037697},{"iata":"MMB","name":"Memanbetsu Airport","city":"Ōzora","cityCode":"MMB","country":"JP","continent":"AS","region":"01","lat":43.8805999756,"lon":144.164001465},{"iata":"MMJ","name":"Shinshu-Matsumoto Airport","city":"Matsumoto","cityCode":"MMJ","country":"JP","continent":"AS","region":"20","lat":36.166801,"lon":137.923004},{"iata":"MMY","name":"Miyako Airport","city":"Miyakojima","cityCode":"MMY","country":"JP","continent":"AS","region":"47","lat":24.782801,"lon":125.294998},{"iata":"MNL","name":"Ninoy Aquino International Airport","city":"Manila (Pasay)","cityCode":"MNL","country":"PH","continent":"AS","region":"00","lat":14.5086,"lon":121.019997},{"iata":"MOB","name":"Mobile Regional Airport","city":"Mobile","cityCode":"MOB","country":"US","continent":"NA","region":"AL","lat":30.6912,"lon":-88.242798},{"iata":"MOV","name":"Moranbah Airport","city":"Moranbah","cityCode":"MOV","country":"AU","continent":"SWP","region":"QLD","lat":-22.057800293,"lon":148.07699585},{"iata":"MPL","name":"Montpellier-Méditerranée Airport","city":"Montpellier/Méditerranée","cityCode":"MPL","country":"FR","continent":"EUME","zone":"EU","region":"OCC","lat":43.576199,"lon":3.96301},{"iata":"MPM","name":"Maputo Airport","city":"Maputo","cityCode":"MPM","country":"MZ","continent":"AF","region":"MPM","lat":-25.920799,"lon":32.572601},{"iata":"MQL","name":"Mildura Airport","city":"Mildura","cityCode":"MQL","country":"AU","continent":"SWP","region":"VIC","lat":-34.229198455799995,"lon":142.085998535},