{"generatedAt":"2026-07-20T11:30:04.966Z","rulesEdition":"27 FEB 26","sources":["wikipedia","ourairports.com"],"airports":[{"iata":"ABE","name":"Lehigh Valley International Airport","city":"Allentown/Bethlehem","cityCode":"ABE","country":"US","continent":"NA","region":"PA","lat":40.651773,"lon":-75.442797},{"iata":"ABI","name":"Abilene Regional Airport","city":"Abilene","cityCode":"ABI","country":"US","continent":"NA","region":"TX","lat":32.4113006592,"lon":-99.68190002440001},{"iata":"ABJ","name":"Félix-Houphouët-Boigny International Airport","city":"Abidjan","cityCode":"ABJ","country":"CI","continent":"AF","region":"AB","lat":5.26139,"lon":-3.92629},{"iata":"ABQ","name":"Albuquerque International Sunport","city":"Albuquerque","cityCode":"ABQ","country":"US","continent":"NA","region":"NM","lat":35.039976,"lon":-106.608925},{"iata":"ABS","name":"Abu Simbel Airport","city":"Abu Simbel","cityCode":"ABS","country":"EG","continent":"EUME","zone":"ME","region":"ASN","lat":22.375924,"lon":31.611734},{"iata":"ABV","name":"Nnamdi Azikiwe International Airport","city":"Abuja","cityCode":"ABV","country":"NG","continent":"AF","region":"FC","lat":9.00679,"lon":7.26317},{"iata":"ABX","name":"Albury Airport","city":"East Albury","cityCode":"ABX","country":"AU","continent":"SWP","region":"NSW","lat":-36.066758,"lon":146.959148},{"iata":"ABZ","name":"Aberdeen International Airport","city":"Aberdeen","cityCode":"ABZ","country":"GB","continent":"EUME","zone":"EU","region":"SCT","lat":57.2019,"lon":-2.19778},{"iata":"ACA","name":"General Juan N. Álvarez International Airport","city":"Acapulco","cityCode":"ACA","country":"MX","continent":"NA","region":"GRO","lat":16.757126,"lon":-99.753113},{"iata":"ACC","name":"Kotoka International Airport","city":"Accra","cityCode":"ACC","country":"GH","continent":"AF","region":"AA","lat":5.605189800262451,"lon":-0.16678600013256073},{"iata":"ACE","name":"César Manrique-Lanzarote Airport","city":"San Bartolomé","cityCode":"ACE","country":"ES","continent":"EUME","zone":"EU","region":"CN","lat":28.945499,"lon":-13.6052},{"iata":"ACK","name":"Nantucket Memorial Airport","city":"Nantucket","cityCode":"ACK","country":"US","continent":"NA","region":"MA","lat":41.25310135,"lon":-70.06020355},{"iata":"ACT","name":"Waco Regional Airport","city":"Waco","cityCode":"ACT","country":"US","continent":"NA","region":"TX","lat":31.611299514770508,"lon":-97.23049926757812},{"iata":"ACV","name":"California Redwood Coast-Humboldt County Airport","city":"Arcata/Eureka","cityCode":"ACV","country":"US","continent":"NA","region":"CA","lat":40.978101,"lon":-124.109},{"iata":"ADB","name":"Adnan Menderes International Airport","city":"Gaziemir","cityCode":"ADB","country":"TR","continent":"EUME","zone":"EU","region":"35","lat":38.2924,"lon":27.157},{"iata":"ADD","name":"Addis Ababa Bole International Airport","city":"Addis Ababa","cityCode":"ADD","country":"ET","continent":"AF","region":"AA","lat":8.97789,"lon":38.799301},{"iata":"ADF","name":"Adıyaman Airport","city":"Adıyaman","cityCode":"ADF","country":"TR","continent":"EUME","zone":"EU","region":"02","lat":37.7314,"lon":38.468899},{"iata":"ADK","name":"Adak Airport","city":"Adak","cityCode":"ADK","country":"US","continent":"NA","region":"AK","lat":51.883564,"lon":-176.642783},{"iata":"ADL","name":"Adelaide International Airport","city":"Adelaide","cityCode":"ADL","country":"AU","continent":"SWP","region":"SA","lat":-34.947512,"lon":138.533393},{"iata":"ADQ","name":"Kodiak Airport","city":"Kodiak","cityCode":"ADQ","country":"US","continent":"NA","region":"AK","lat":57.75,"lon":-152.4940033},{"iata":"ADZ","name":"Gustavo Rojas Pinilla International Airport","city":"San Andrés","cityCode":"ADZ","country":"CO","continent":"SA","region":"SAP","lat":12.5836,"lon":-81.7112},{"iata":"AEP","name":"Aeroparque Jorge Newbery","city":"Buenos Aires","cityCode":"BUE","country":"AR","continent":"SA","region":"C","lat":-34.559419,"lon":-58.415536},{"iata":"AER","name":"Sochi International Airport","city":"Sochi","cityCode":"AER","country":"RU","continent":"EUME","zone":"EU","region":"KDA","lat":43.449902,"lon":39.9566},{"iata":"AEX","name":"Alexandria International Airport","city":"Alexandria","cityCode":"AEX","country":"US","continent":"NA","region":"LA","lat":31.325828,"lon":-92.546702},{"iata":"AGA","name":"Al Massira Airport","city":"Agadir (Temsia)","cityCode":"AGA","country":"MA","continent":"EUME","zone":"EU","region":"09","lat":30.322478,"lon":-9.412003},{"iata":"AGP","name":"Málaga-Costa del Sol Airport","city":"Málaga","cityCode":"AGP","country":"ES","continent":"EUME","zone":"EU","region":"AN","lat":36.6749,"lon":-4.49911},{"iata":"AGS","name":"Augusta Regional At Bush Field","city":"Augusta","cityCode":"AGS","country":"US","continent":"NA","region":"GA","lat":33.3699,"lon":-81.9645},{"iata":"AGU","name":"Aguascalientes International Airport","city":"Aguascalientes","cityCode":"AGU","country":"MX","continent":"NA","region":"AGU","lat":21.699589,"lon":-102.318372},{"iata":"AHB","name":"Abha International Airport","city":"Abha","cityCode":"AHB","country":"SA","continent":"EUME","zone":"ME","region":"14","lat":18.2404,"lon":42.656601},{"iata":"AHJ","name":"Hongyuan Airport","city":"Ngawa (Hongyuan)","cityCode":"AHJ","country":"CN","continent":"AS","region":"51","lat":32.53154,"lon":102.35224},{"iata":"AHO","name":"Alghero-Fertilia Airport","city":"Alghero","cityCode":"AHO","country":"IT","continent":"EUME","zone":"EU","region":"88","lat":40.632099,"lon":8.29077},{"iata":"AHU","name":"Cherif Al Idrissi Airport","city":"Al Hoceima","cityCode":"AHU","country":"MA","continent":"EUME","zone":"EU","region":"01","lat":35.177101,"lon":-3.83952},{"iata":"AJI","name":"Ağrı Airport","city":"Ağrı","cityCode":"AJI","country":"TR","continent":"EUME","zone":"EU","region":"04","lat":39.655642,"lon":43.025742},{"iata":"AKJ","name":"Asahikawa Airport","city":"Higashikagura","cityCode":"AKJ","country":"JP","continent":"AS","region":"01","lat":43.670799,"lon":142.447006},{"iata":"AKL","name":"Auckland International Airport","city":"Auckland","cityCode":"AKL","country":"NZ","continent":"SWP","region":"AUK","lat":-37.01199,"lon":174.786331},{"iata":"AKN","name":"King Salmon Airport","city":"King Salmon","cityCode":"AKN","country":"US","continent":"NA","region":"AK","lat":58.677845,"lon":-156.651965},{"iata":"AKU","name":"Aksu Hongqipo Airport","city":"Aksu (Onsu)","cityCode":"AKU","country":"CN","continent":"AS","region":"65","lat":41.262501,"lon":80.291702},{"iata":"ALA","name":"Almaty International Airport","city":"Almaty","cityCode":"ALA","country":"KZ","continent":"AS","region":"ALA","lat":43.354267,"lon":77.042828},{"iata":"ALB","name":"Albany International Airport","city":"Albany","cityCode":"ALB","country":"US","continent":"NA","region":"NY","lat":42.748299,"lon":-73.801697},{"iata":"ALC","name":"Alicante-Elche Miguel Hernández Airport","city":"Alicante","cityCode":"ALC","country":"ES","continent":"EUME","zone":"EU","region":"VC","lat":38.2822,"lon":-0.558156},{"iata":"ALF","name":"Alta Airport","city":"Alta","cityCode":"ALF","country":"NO","continent":"EUME","zone":"EU","region":"56","lat":69.976097,"lon":23.3717},{"iata":"ALG","name":"Houari Boumediene Airport","city":"Algiers","cityCode":"ALG","country":"DZ","continent":"EUME","zone":"EU","region":"16","lat":36.693886,"lon":3.214531},{"iata":"ALO","name":"Waterloo Regional Airport","city":"Waterloo","cityCode":"ALO","country":"US","continent":"NA","region":"IA","lat":42.557098388671875,"lon":-92.40029907226562},{"iata":"ALP","name":"Aleppo International Airport","city":"Aleppo","cityCode":"ALP","country":"SY","continent":"EUME","zone":"ME","region":"HL","lat":36.181262,"lon":37.226869},{"iata":"ALW","name":"Walla Walla Regional Airport","city":"Walla Walla","cityCode":"ALW","country":"US","continent":"NA","region":"WA","lat":46.09489822,"lon":-118.288002},{"iata":"AMA","name":"Rick Husband Amarillo International Airport","city":"Amarillo","cityCode":"AMA","country":"US","continent":"NA","region":"TX","lat":35.217857,"lon":-101.706444},{"iata":"AMD","name":"Sardar Vallabh Patel International Airport","city":"Ahmedabad","cityCode":"AMD","country":"IN","continent":"AS","region":"GJ","lat":23.0772,"lon":72.634697},{"iata":"AMH","name":"Arba Minch Airport","city":"Arba Minch","cityCode":"AMH","country":"ET","continent":"AF","region":"SN","lat":6.03939,"lon":37.5905},{"iata":"AMM","name":"Queen Alia International Airport","city":"Amman","cityCode":"AMM","country":"JO","continent":"EUME","zone":"ME","region":"AM","lat":31.7226009369,"lon":35.9931983948},{"iata":"AMS","name":"Amsterdam Airport Schiphol","city":"Amsterdam","cityCode":"AMS","country":"NL","continent":"EUME","zone":"EU","region":"NH","lat":52.308601,"lon":4.76389},{"iata":"ANC","name":"Ted Stevens Anchorage International Airport","city":"Anchorage","cityCode":"ANC","country":"US","continent":"NA","region":"AK","lat":61.179004,"lon":-149.992561},{"iata":"ANU","name":"V. C. Bird International Airport","city":"Osbourn","cityCode":"ANU","country":"AG","continent":"NA","region":"03","lat":17.1367,"lon":-61.792702},{"iata":"AOI","name":"Marche Airport","city":"Falconara Marittima (AN)","cityCode":"AOI","country":"IT","continent":"EUME","zone":"EU","region":"57","lat":43.616299,"lon":13.3623},{"iata":"AOJ","name":"Aomori Airport","city":"Aomori","cityCode":"AOJ","country":"JP","continent":"AS","region":"02","lat":40.733777,"lon":140.689477},{"iata":"AOK","name":"Karpathos Airport","city":"Karpathos Island","cityCode":"AOK","country":"GR","continent":"EUME","zone":"EU","region":"L","lat":35.421398,"lon":27.146},{"iata":"AOR","name":"Sultan Abdul Halim Airport","city":"Alor Satar","cityCode":"AOR","country":"MY","continent":"AS","region":"02","lat":6.189670085906982,"lon":100.39800262451172},{"iata":"APF","name":"Naples Municipal Airport","city":"Naples","cityCode":"APF","country":"US","continent":"NA","region":"FL","lat":26.1525993347,"lon":-81.7752990723},{"iata":"APW","name":"Faleolo International Airport","city":"Apia","cityCode":"APW","country":"WS","continent":"SWP","region":"AA","lat":-13.83,"lon":-172.007996},{"iata":"AQJ","name":"King Hussein International Airport","city":"Aqaba","cityCode":"AQJ","country":"JO","continent":"EUME","zone":"ME","region":"AQ","lat":29.611601,"lon":35.018101},{"iata":"ARM","name":"Armidale Airport","city":"Armidale","cityCode":"ARM","country":"AU","continent":"SWP","region":"NSW","lat":-30.528099060099997,"lon":151.617004395},{"iata":"ARN","name":"Stockholm-Arlanda Airport","city":"Stockholm","cityCode":"STO","country":"SE","continent":"EUME","zone":"EU","region":"AB","lat":59.64849,"lon":17.928829},{"iata":"ART","name":"Watertown International Airport","city":"Watertown","cityCode":"ART","country":"US","continent":"NA","region":"NY","lat":43.991901,"lon":-76.021698},{"iata":"ASB","name":"Ashgabat International Airport","city":"Ashgabat","cityCode":"ASB","country":"TM","continent":"AS","region":"S","lat":37.986801,"lon":58.361},{"iata":"ASE","name":"Aspen-Pitkin County Airport (Sardy Field)","city":"Aspen","cityCode":"ASE","country":"US","continent":"NA","region":"CO","lat":39.223202,"lon":-106.869003},{"iata":"ASJ","name":"Amami Airport","city":"Amami","cityCode":"ASJ","country":"JP","continent":"AS","region":"46","lat":28.430599212646484,"lon":129.71299743652344},{"iata":"ASM","name":"Asmara International Airport","city":"Asmara","cityCode":"ASM","country":"ER","continent":"AF","region":"SK","lat":15.2919,"lon":38.910702},{"iata":"ASO","name":"Asosa Airport","city":"Asosa","cityCode":"ASO","country":"ET","continent":"AF","region":"BE","lat":10.018500328063965,"lon":34.586299896240234},{"iata":"ASP","name":"Alice Springs Airport","city":"Alice Springs","cityCode":"ASP","country":"AU","continent":"SWP","region":"NT","lat":-23.806588,"lon":133.903427},{"iata":"ASR","name":"Kayseri Erkilet International Airport","city":"Kayseri","cityCode":"ASR","country":"TR","continent":"EUME","zone":"EU","region":"38","lat":38.770401,"lon":35.495399},{"iata":"ASU","name":"Silvio Pettirossi International Airport","city":"Asunción","cityCode":"ASU","country":"PY","continent":"SA","region":"11","lat":-25.240156,"lon":-57.519227},{"iata":"ASW","name":"Aswan International Airport","city":"Aswan","cityCode":"ASW","country":"EG","continent":"EUME","zone":"ME","region":"ASN","lat":23.961075,"lon":32.820382},{"iata":"ATH","name":"Athens Eleftherios Venizelos International Airport","city":"Spata-Artemida","cityCode":"ATH","country":"GR","continent":"EUME","zone":"EU","region":"I","lat":37.936401,"lon":23.9445},{"iata":"ATL","name":"Hartsfield Jackson Atlanta International Airport","city":"Atlanta","cityCode":"ATL","country":"US","continent":"NA","region":"GA","lat":33.6367,"lon":-84.428101},{"iata":"ATQ","name":"Sri Guru Ram Das Ji International Airport","city":"Amritsar","cityCode":"ATQ","country":"IN","continent":"AS","region":"PB","lat":31.7096,"lon":74.797302},{"iata":"ATW","name":"Appleton International Airport","city":"Appleton","cityCode":"ATW","country":"US","continent":"NA","region":"WI","lat":44.258515,"lon":-88.519},{"iata":"ATY","name":"Watertown Regional Airport","city":"Watertown","cityCode":"ATY","country":"US","continent":"NA","region":"SD","lat":44.91400146,"lon":-97.15470123},{"iata":"AUA","name":"Queen Beatrix International Airport","city":"Oranjestad","cityCode":"AUA","country":"AW","continent":"NA","region":"U","lat":12.501056,"lon":-70.014281},{"iata":"AUC","name":"Santiago Perez Airport","city":"Arauca","cityCode":"AUC","country":"CO","continent":"SA","region":"ARA","lat":7.06888,"lon":-70.7369},{"iata":"AUH","name":"Zayed International Airport","city":"Abu Dhabi","cityCode":"AUH","country":"AE","continent":"EUME","zone":"ME","region":"AZ","lat":24.440966,"lon":54.649237},{"iata":"AUS","name":"Austin Bergstrom International Airport","city":"Austin","cityCode":"AUS","country":"US","continent":"NA","region":"TX","lat":30.197535,"lon":-97.662015},{"iata":"AVL","name":"Asheville Regional Airport","city":"Asheville","cityCode":"AVL","country":"US","continent":"NA","region":"NC","lat":35.435488,"lon":-82.541853},{"iata":"AVP","name":"Wilkes-Barre/Scranton International Airport","city":"Wilkes-Barre/Scranton","cityCode":"AVP","country":"US","continent":"NA","region":"PA","lat":41.337064,"lon":-75.724232},{"iata":"AVV","name":"Melbourne Avalon International Airport","city":"Geelong/Melbourne","cityCode":"MEL","country":"AU","continent":"SWP","region":"VIC","lat":-38.040269,"lon":144.467196},{"iata":"AWA","name":"Hawassa International Airport","city":"Hawassa","cityCode":"AWA","country":"ET","continent":"AF","region":"XSD","lat":7.100611,"lon":38.396455},{"iata":"AXA","name":"Clayton J. Lloyd International Airport","city":"The Valley","cityCode":"AXA","country":"AI","continent":"NA","region":"U","lat":18.204773,"lon":-63.05383},{"iata":"AXD","name":"Alexandroupoli Democritus Airport","city":"Alexandroupolis","cityCode":"AXD","country":"GR","continent":"EUME","zone":"EU","region":"A","lat":40.8559,"lon":25.956301},{"iata":"AXM","name":"El Eden Airport","city":"Armenia","cityCode":"AXM","country":"CO","continent":"SA","region":"QUI","lat":4.45278,"lon":-75.7664},{"iata":"AXT","name":"Akita Airport","city":"Akita","cityCode":"AXT","country":"JP","continent":"AS","region":"05","lat":39.615601,"lon":140.218994},{"iata":"AXU","name":"Axum Airport","city":"Axum","cityCode":"AXU","country":"ET","continent":"AF","region":"TI","lat":14.1468,"lon":38.7728},{"iata":"AYQ","name":"Ayers Rock Connellan Airport","city":"Yulara","cityCode":"AYQ","country":"AU","continent":"SWP","region":"NT","lat":-25.185913,"lon":130.97703},{"iata":"AYT","name":"Antalya International Airport","city":"Antalya","cityCode":"AYT","country":"TR","continent":"EUME","zone":"EU","region":"07","lat":36.898701,"lon":30.800501},{"iata":"AZO","name":"Kalamazoo/Battle Creek International Airport","city":"Kalamazoo","cityCode":"AZO","country":"US","continent":"NA","region":"MI","lat":42.232105,"lon":-85.549637},{"iata":"AZS","name":"Samaná El Catey International Airport","city":"Samana","cityCode":"AZS","country":"DO","continent":"NA","region":"20","lat":19.269259,"lon":-69.737405},{"iata":"BAH","name":"Bahrain International Airport","city":"Manama","cityCode":"BAH","country":"BH","continent":"EUME","zone":"ME","region":"15","lat":26.267295,"lon":50.63764},{"iata":"BAL","name":"Batman Airport","city":"Batman","cityCode":"BAL","country":"TR","continent":"EUME","zone":"EU","region":"72","lat":37.929001,"lon":41.1166},{"iata":"BAQ","name":"Ernesto Cortissoz International Airport","city":"Barranquilla","cityCode":"BAQ","country":"CO","continent":"SA","region":"ATL","lat":10.8896,"lon":-74.7808},{"iata":"BAV","name":"Baotou Donghe International Airport","city":"Baotou","cityCode":"BAV","country":"CN","continent":"AS","region":"15","lat":40.560001,"lon":109.997002},{"iata":"BBI","name":"Biju Patnaik International Airport","city":"Bhubaneswar","cityCode":"BBI","country":"IN","continent":"AS","region":"OR","lat":20.251021,"lon":85.814747},{"iata":"BBU","name":"Bucharest Băneasa Aurel Vlaicu International Airport","city":"Bucharest","cityCode":"BBU","country":"RO","continent":"EUME","zone":"EU","region":"B","lat":44.503133,"lon":26.102944},{"iata":"BCI","name":"Barcaldine Airport","city":"Barcaldine","cityCode":"BCI","country":"AU","continent":"SWP","region":"QLD","lat":-23.566268,"lon":145.302086},{"iata":"BCJ","name":"Beichuan Yongchang Airport","city":"Mianyang","cityCode":"BCJ","country":"CN","continent":"AS","region":"51","lat":31.581474,"lon":104.459701},{"iata":"BCN","name":"Josep Tarradellas Barcelona-El Prat Airport","city":"Barcelona","cityCode":"BCN","country":"ES","continent":"EUME","zone":"EU","region":"CT","lat":41.2971,"lon":2.07846},{"iata":"BCO","name":"Jinka Airport","city":"Jinka","cityCode":"BCO","country":"ET","continent":"AF","region":"SN","lat":5.749655,"lon":36.560165},{"iata":"BDA","name":"L.F. Wade International Airport","city":"Hamilton","cityCode":"BDA","country":"BM","continent":"NA","region":"U","lat":32.363802,"lon":-64.67824},{"iata":"BDB","name":"Bundaberg Airport","city":"Bundaberg","cityCode":"BDB","country":"AU","continent":"SWP","region":"QLD","lat":-24.905039,"lon":152.322612},{"iata":"BDL","name":"Bradley International Airport","city":"Hartford","cityCode":"BDL","country":"US","continent":"NA","region":"CT","lat":41.938555,"lon":-72.688016},{"iata":"BDQ","name":"Vadodara International Airport","city":"Vadodara","cityCode":"BDQ","country":"IN","continent":"AS","region":"GJ","lat":22.336201,"lon":73.226303},{"iata":"BDS","name":"Brindisi Airport","city":"Brindisi","cityCode":"BDS","country":"IT","continent":"EUME","zone":"EU","region":"75","lat":40.6576,"lon":17.947001},{"iata":"BEG","name":"Belgrade Nikola Tesla Airport","city":"Belgrade","cityCode":"BEG","country":"RS","continent":"EUME","zone":"EU","region":"00","lat":44.818401,"lon":20.309099},{"iata":"BEL","name":"Val de Cans/Júlio Cezar Ribeiro International Airport","city":"Belém","cityCode":"BEL","country":"BR","continent":"SA","region":"PA","lat":-1.379279,"lon":-48.476207},{"iata":"BEN","name":"Benina International Airport","city":"Benina","cityCode":"BEN","country":"LY","continent":"EUME","zone":"ME","region":"BA","lat":32.096802,"lon":20.269501},{"iata":"BER","name":"Berlin Brandenburg Airport","city":"Berlin","cityCode":"BER","country":"DE","continent":"EUME","zone":"EU","region":"BR","lat":52.361738,"lon":13.502341},{"iata":"BES","name":"Brest Bretagne airport","city":"Brest","cityCode":"BES","country":"FR","continent":"EUME","zone":"EU","region":"BRE","lat":48.447899,"lon":-4.41854},{"iata":"BET","name":"Bethel Airport","city":"Bethel","cityCode":"BET","country":"US","continent":"NA","region":"AK","lat":60.77980042,"lon":-161.8379974},{"iata":"BEW","name":"Beira International Airport","city":"Beira","cityCode":"BEW","country":"MZ","continent":"AF","region":"S","lat":-19.7964,"lon":34.9076},{"iata":"BEY","name":"Beirut Rafic Hariri International Airport","city":"Beirut","cityCode":"BEY","country":"LB","continent":"EUME","zone":"ME","region":"JL","lat":33.819833,"lon":35.487443},{"iata":"BFF","name":"Western Neb. Rgnl/William B. Heilig Airport","city":"Scottsbluff","cityCode":"BFF","country":"US","continent":"NA","region":"NE","lat":41.87400055,"lon":-103.5960007},{"iata":"BFL","name":"Meadows Field","city":"Bakersfield","cityCode":"BFL","country":"US","continent":"NA","region":"CA","lat":35.433601,"lon":-119.056999},{"iata":"BGA","name":"Palonegro Airport","city":"Bucaramanga","cityCode":"BGA","country":"CO","continent":"SA","region":"SAN","lat":7.1265,"lon":-73.1848},{"iata":"BGF","name":"Bangui M'Poko International Airport","city":"Bangui","cityCode":"BGF","country":"CF","continent":"AF","region":"MP","lat":4.39848,"lon":18.518801},{"iata":"BGG","name":"Bingöl Airport","city":"Bingöl","cityCode":"BGG","country":"TR","continent":"EUME","zone":"EU","region":"12","lat":38.860131,"lon":40.594489},{"iata":"BGI","name":"Grantley Adams International Airport","city":"Bridgetown","cityCode":"BGI","country":"BB","continent":"NA","region":"01","lat":13.074667,"lon":-59.491034},{"iata":"BGO","name":"Bergen Airport, Flesland","city":"Bergen","cityCode":"BGO","country":"NO","continent":"EUME","zone":"EU","region":"46","lat":60.2934,"lon":5.21814},{"iata":"BGR","name":"Bangor International Airport","city":"Bangor","cityCode":"BGR","country":"US","continent":"NA","region":"ME","lat":44.806364,"lon":-68.826668},{"iata":"BGW","name":"Baghdad International Airport / New Al Muthana Air Base","city":"Baghdad","cityCode":"BGW","country":"IQ","continent":"EUME","zone":"ME","region":"BG","lat":33.262501,"lon":44.2346},{"iata":"BHD","name":"George Best Belfast City Airport","city":"Belfast","cityCode":"BHD","country":"GB","continent":"EUME","zone":"EU","region":"NIR","lat":54.618099,"lon":-5.8725},{"iata":"BHE","name":"Woodbourne Airport","city":"Blenheim","cityCode":"BHE","country":"NZ","continent":"SWP","region":"MBH","lat":-41.5182991027832,"lon":173.8699951171875},{"iata":"BHJ","name":"Bhuj Airport","city":"Bhuj","cityCode":"BHJ","country":"IN","continent":"AS","region":"GJ","lat":23.2877998352,"lon":69.6701965332},{"iata":"BHK","name":"Bukhara International Airport","city":"Bukhara","cityCode":"BHK","country":"UZ","continent":"AS","region":"BU","lat":39.775319,"lon":64.482279},{"iata":"BHM","name":"Birmingham-Shuttlesworth International Airport","city":"Birmingham","cityCode":"BHM","country":"US","continent":"NA","region":"AL","lat":33.562877,"lon":-86.750712},{"iata":"BHO","name":"Raja Bhoj International Airport","city":"Bhopal","cityCode":"BHO","country":"IN","continent":"AS","region":"MP","lat":23.2875,"lon":77.337402},{"iata":"BHQ","name":"Broken Hill Airport","city":"Broken Hill","cityCode":"BHQ","country":"AU","continent":"SWP","region":"NSW","lat":-32.0013999939,"lon":141.472000122},{"iata":"BHX","name":"Birmingham Airport","city":"Birmingham, West Midlands","cityCode":"BHX","country":"GB","continent":"EUME","zone":"EU","region":"ENG","lat":52.453899,"lon":-1.74803},{"iata":"BHY","name":"Beihai Fucheng Airport","city":"Beihai","cityCode":"BHY","country":"CN","continent":"AS","region":"45","lat":21.538659,"lon":109.293683},{"iata":"BIA","name":"Bastia-Poretta International airport","city":"Bastia","cityCode":"BIA","country":"FR","continent":"EUME","zone":"EU","region":"COR","lat":42.5527,"lon":9.48373},{"iata":"BIH","name":"Eastern Sierra Regional Airport","city":"Bishop","cityCode":"BIH","country":"US","continent":"NA","region":"CA","lat":37.3731,"lon":-118.363998},{"iata":"BIL","name":"Billings Logan International Airport","city":"Billings","cityCode":"BIL","country":"US","continent":"NA","region":"MT","lat":45.808932,"lon":-108.541242},{"iata":"BIM","name":"South Bimini Airport","city":"South Bimini","cityCode":"BIM","country":"BS","continent":"NA","region":"BI","lat":25.6998996735,"lon":-79.2647018433},{"iata":"BIO","name":"Bilbao Airport","city":"Bilbao","cityCode":"BIO","country":"ES","continent":"EUME","zone":"EU","region":"PV","lat":43.301102,"lon":-2.91061},{"iata":"BIQ","name":"Biarritz Pays Basque airport","city":"Biarritz","cityCode":"BIQ","country":"FR","continent":"EUME","zone":"EU","region":"NAQ","lat":43.468372,"lon":-1.523223},{"iata":"BIS","name":"Bismarck Municipal Airport","city":"Bismarck","cityCode":"BIS","country":"US","continent":"NA","region":"ND","lat":46.772734,"lon":-100.746874},{"iata":"BJL","name":"Banjul International Airport","city":"Banjul (Yundum)","cityCode":"BJL","country":"GM","continent":"AF","region":"W","lat":13.338,"lon":-16.652201},{"iata":"BJM","name":"Bujumbura Melchior Ndadaye International Airport","city":"Bujumbura","cityCode":"BJM","country":"BI","continent":"AF","region":"BM","lat":-3.32402,"lon":29.318501},{"iata":"BJR","name":"Bahir Dar Airport","city":"Bahir Dar","cityCode":"BJR","country":"ET","continent":"AF","region":"AM","lat":11.6081,"lon":37.321602},{"iata":"BJV","name":"Milas Bodrum International Airport","city":"Bodrum","cityCode":"BJV","country":"TR","continent":"EUME","zone":"EU","region":"48","lat":37.249314,"lon":27.66401},{"iata":"BJX","name":"Guanajuato International Airport","city":"Silao","cityCode":"BJX","country":"MX","continent":"NA","region":"GUA","lat":20.992695,"lon":-101.480284},{"iata":"BJZ","name":"Badajoz Airport","city":"Badajoz","cityCode":"BJZ","country":"ES","continent":"EUME","zone":"EU","region":"EX","lat":38.8913,"lon":-6.82133},{"iata":"BKI","name":"Kota Kinabalu International Airport","city":"Kota Kinabalu","cityCode":"BKI","country":"MY","continent":"AS","region":"12","lat":5.932743,"lon":116.049324},{"iata":"BKK","name":"Suvarnabhumi Airport","city":"Bangkok","cityCode":"BKK","country":"TH","continent":"AS","region":"10","lat":13.6811,"lon":100.747002},{"iata":"BKO","name":"Modibo Keita International Airport","city":"Bamako","cityCode":"BKO","country":"ML","continent":"AF","region":"2","lat":12.5335,"lon":-7.94994},{"iata":"BKQ","name":"Blackall Airport","city":"Blackall","cityCode":"BKQ","country":"AU","continent":"SWP","region":"QLD","lat":-24.431678,"lon":145.429716},{"iata":"BLI","name":"Bellingham International Airport","city":"Bellingham","cityCode":"BLI","country":"US","continent":"NA","region":"WA","lat":48.79280090332031,"lon":-122.53800201416016},{"iata":"BLL","name":"Billund Airport","city":"Billund","cityCode":"BLL","country":"DK","continent":"EUME","zone":"EU","region":"83","lat":55.740335,"lon":9.157019},{"iata":"BLQ","name":"Bologna Guglielmo Marconi Airport","city":"Bologna","cityCode":"BLQ","country":"IT","continent":"EUME","zone":"EU","region":"45","lat":44.5354,"lon":11.2887},{"iata":"BLR","name":"Kempegowda International Airport Bengaluru","city":"Bengaluru","cityCode":"BLR","country":"IN","continent":"AS","region":"KA","lat":13.1979,"lon":77.706299},{"iata":"BLZ","name":"Chileka International Airport","city":"Blantyre","cityCode":"BLZ","country":"MW","continent":"AF","region":"BL","lat":-15.677189,"lon":34.972319},{"iata":"BME","name":"Broome International Airport","city":"Broome","cityCode":"BME","country":"AU","continent":"SWP","region":"WA","lat":-17.949194,"lon":122.2283},{"iata":"BMI","name":"Central Illinois Regional Airport at Bloomington-Normal","city":"Bloomington/Normal","cityCode":"BMI","country":"US","continent":"NA","region":"IL","lat":40.4771,"lon":-88.915901},{"iata":"BNA","name":"Nashville International Airport","city":"Nashville","cityCode":"BNA","country":"US","continent":"NA","region":"TN","lat":36.1245,"lon":-86.6782},{"iata":"BNE","name":"Brisbane International Airport","city":"Brisbane","cityCode":"BNE","country":"AU","continent":"SWP","region":"QLD","lat":-27.384199142456055,"lon":153.11700439453125},{"iata":"BNK","name":"Ballina Byron Gateway Airport","city":"Ballina","cityCode":"BNK","country":"AU","continent":"SWP","region":"NSW","lat":-28.833236,"lon":153.561471},{"iata":"BOD","name":"Bordeaux–Mérignac Airport","city":"Bordeaux","cityCode":"BOD","country":"FR","continent":"EUME","zone":"EU","region":"NAQ","lat":44.82865,"lon":-0.715356},{"iata":"BOG","name":"El Dorado International Airport","city":"Bogota","cityCode":"BOG","country":"CO","continent":"SA","region":"DC","lat":4.70159,"lon":-74.1469},{"iata":"BOI","name":"Boise Air Terminal/Gowen Field","city":"Boise","cityCode":"BOI","country":"US","continent":"NA","region":"ID","lat":43.5644,"lon":-116.223},{"iata":"BOJ","name":"Burgas Airport","city":"Burgas","cityCode":"BOJ","country":"BG","continent":"EUME","zone":"EU","region":"02","lat":42.569917,"lon":27.515173},{"iata":"BOM","name":"Chhatrapati Shivaji Maharaj International Airport","city":"Mumbai","cityCode":"BOM","country":"IN","continent":"AS","region":"MM","lat":19.088699,"lon":72.867897},{"iata":"BON","name":"Flamingo International Airport","city":"Kralendijk","cityCode":"BON","country":"BQ","continent":"NA","region":"BO","lat":12.131,"lon":-68.268501},{"iata":"BOO","name":"Bodø Airport","city":"Bodø","cityCode":"BOO","country":"NO","continent":"EUME","zone":"EU","region":"18","lat":67.269203,"lon":14.3653},{"iata":"BOS","name":"Boston Logan International Airport","city":"Boston","cityCode":"BOS","country":"US","continent":"NA","region":"MA","lat":42.36197,"lon":-71.0079},{"iata":"BPN","name":"Sultan Aji Muhammad Sulaiman Sepinggan International Airport","city":"Balikpapan","cityCode":"BPN","country":"ID","continent":"AS","region":"KI","lat":-1.268342,"lon":116.89452},{"iata":"BPT","name":"Jack Brooks Regional Airport","city":"Beaumont/Port Arthur","cityCode":"BPT","country":"US","continent":"NA","region":"TX","lat":29.9508,"lon":-94.020699},{"iata":"BPX","name":"Qamdo Bangda Airport","city":"Bangda","cityCode":"BPX","country":"CN","continent":"AS","region":"54","lat":30.553600311279297,"lon":97.1082992553711},{"iata":"BQB","name":"Busselton Margaret River Regional Airport","city":"Busselton","cityCode":"BQB","country":"AU","continent":"SWP","region":"WA","lat":-33.687222,"lon":115.400278},{"iata":"BQN","name":"Rafael Hernández International Airport","city":"Aguadilla","cityCode":"BQN","country":"PR","continent":"NA","region":"U","lat":18.4949,"lon":-67.129402},{"iata":"BRE","name":"Bremen Airport","city":"Bremen","cityCode":"BRE","country":"DE","continent":"EUME","zone":"EU","region":"HB","lat":53.046786,"lon":8.78932},{"iata":"BRI","name":"Bari Karol Wojtyła International Airport","city":"Bari","cityCode":"BRI","country":"IT","continent":"EUME","zone":"EU","region":"75","lat":41.138901,"lon":16.760599},{"iata":"BRM","name":"Jacinto Lara International Airport","city":"Barquisimeto","cityCode":"BRM","country":"VE","continent":"SA","region":"K","lat":10.042747,"lon":-69.35862},{"iata":"BRN","name":"Bern Airport","city":"Bern","cityCode":"BRN","country":"CH","continent":"EUME","zone":"EU","region":"BE","lat":46.912736,"lon":7.498819},{"iata":"BRO","name":"Brownsville South Padre Island International Airport","city":"Brownsville","cityCode":"BRO","country":"US","continent":"NA","region":"TX","lat":25.907238,"lon":-97.425235},{"iata":"BRS","name":"Bristol Airport","city":"Bristol","cityCode":"BRS","country":"GB","continent":"EUME","zone":"EU","region":"ENG","lat":51.382326,"lon":-2.716453},{"iata":"BRU","name":"Brussels Airport","city":"Zaventem","cityCode":"BRU","country":"BE","continent":"EUME","zone":"EU","region":"VBR","lat":50.901402,"lon":4.48444},{"iata":"BRW","name":"Wiley Post Will Rogers Memorial Airport","city":"Utqiaġvik","cityCode":"BRW","country":"US","continent":"NA","region":"AK","lat":71.285402,"lon":-156.766008},{"iata":"BSA","name":"Bender Qassim International Airport","city":"Bosaso","cityCode":"BSA","country":"SO","continent":"AF","region":"BR","lat":11.275235,"lon":49.139231},{"iata":"BSB","name":"Presidente Juscelino Kubitschek International Airport","city":"Brasília","cityCode":"BSB","country":"BR","continent":"SA","region":"DF","lat":-15.869167,"lon":-47.920834},{"iata":"BSL","name":"EuroAirport Basel–Mulhouse–Freiburg","city":"Bâle / Mulhouse","cityCode":"EAP","country":"FR","continent":"EUME","zone":"EU","region":"GES","lat":47.60068,"lon":7.521117},{"iata":"BSR","name":"Basra International Airport","city":"Basra","cityCode":"BSR","country":"IQ","continent":"EUME","zone":"ME","region":"BA","lat":30.549101,"lon":47.662102},{"iata":"BSZ","name":"Manas International Airport","city":"Bishkek","cityCode":"BSZ","country":"KG","continent":"AS","region":"C","lat":43.061298,"lon":74.4776},{"iata":"BTM","name":"Bert Mooney Airport","city":"Butte","cityCode":"BTM","country":"US","continent":"NA","region":"MT","lat":45.95479965209961,"lon":-112.49700164794922},{"iata":"BTR","name":"Baton Rouge Metropolitan Airport","city":"Baton Rouge","cityCode":"BTR","country":"US","continent":"NA","region":"LA","lat":30.533199,"lon":-91.149597},{"iata":"BTU","name":"Bintulu Airport","city":"Bintulu","cityCode":"BTU","country":"MY","continent":"AS","region":"13","lat":3.12385010719,"lon":113.019996643},{"iata":"BTV","name":"Patrick Leahy Burlington International Airport","city":"Burlington","cityCode":"BTV","country":"US","continent":"NA","region":"VT","lat":44.471901,"lon":-73.153297},{"iata":"BUD","name":"Budapest Liszt Ferenc International Airport","city":"Budapest","cityCode":"BUD","country":"HU","continent":"EUME","zone":"EU","region":"BU","lat":47.43018,"lon":19.262393},{"iata":"BUF","name":"Buffalo Niagara International Airport","city":"Buffalo","cityCode":"BUF","country":"US","continent":"NA","region":"NY","lat":42.940498,"lon":-78.732201},{"iata":"BUQ","name":"Joshua Mqabuko Nkomo International Airport","city":"Bulawayo","cityCode":"BUQ","country":"ZW","continent":"AF","region":"BU","lat":-20.016284,"lon":28.622897},{"iata":"BUR","name":"Hollywood Burbank/Bob Hope Airport","city":"Burbank","cityCode":"BUR","country":"US","continent":"NA","region":"CA","lat":34.202834,"lon":-118.35805},{"iata":"BUS","name":"Alexander Kartveli Batumi International Airport","city":"Batumi","cityCode":"BUS","country":"GE","continent":"EUME","zone":"EU","region":"AJ","lat":41.60939,"lon":41.600315},{"iata":"BVC","name":"Aristides Pereira International Airport","city":"Rabil","cityCode":"BVC","country":"CV","continent":"AF","region":"B","lat":16.136499,"lon":-22.888901},{"iata":"BWI","name":"Baltimore/Washington International Thurgood Marshall Airport","city":"Baltimore","cityCode":"WAS","country":"US","continent":"NA","region":"MD","lat":39.1754,"lon":-76.668297},{"iata":"BWN","name":"Brunei International Airport","city":"Bandar Seri Begawan","cityCode":"BWN","country":"BN","continent":"AS","region":"BM","lat":4.9442,"lon":114.928001},{"iata":"BWT","name":"Wynyard Airport","city":"Burnie","cityCode":"BWT","country":"AU","continent":"SWP","region":"TAS","lat":-40.997039,"lon":145.726},{"iata":"BXG","name":"Bendigo Airport","city":"Bendigo Airport","cityCode":"BXG","country":"AU","continent":"SWP","region":"VIC","lat":-36.739399,"lon":144.330002},{"iata":"BZE","name":"Philip S. W. Goldson International Airport","city":"Belize City","cityCode":"BZE","country":"BZ","continent":"NA","region":"BZ","lat":17.539951,"lon":-88.303556},{"iata":"BZG","name":"Ignacy Jan Paderewski Bydgoszcz Airport","city":"Bydgoszcz","cityCode":"BZG","country":"PL","continent":"EUME","zone":"EU","region":"KP","lat":53.096802,"lon":17.977699},{"iata":"BZN","name":"Bozeman Yellowstone International Airport","city":"Bozeman","cityCode":"BZN","country":"US","continent":"NA","region":"MT","lat":45.778853,"lon":-111.153711},{"iata":"BZV","name":"Maya-Maya International Airport","city":"Brazzaville","cityCode":"BZV","country":"CG","continent":"AF","region":"12","lat":-4.2517,"lon":15.253},{"iata":"BZX","name":"Bazhong Enyang Airport","city":"Bazhong","cityCode":"BZX","country":"CN","continent":"AS","region":"51","lat":31.73842,"lon":106.644872},{"iata":"CAE","name":"Columbia Metropolitan Airport","city":"Columbia","cityCode":"CAE","country":"US","continent":"NA","region":"SC","lat":33.938172,"lon":-81.123022},{"iata":"CAG","name":"Cagliari Elmas Airport","city":"Cagliari","cityCode":"CAG","country":"IT","continent":"EUME","zone":"EU","region":"88","lat":39.251499,"lon":9.05428},{"iata":"CAI","name":"Cairo International Airport","city":"Cairo","cityCode":"CAI","country":"EG","continent":"EUME","zone":"ME","region":"C","lat":30.111534,"lon":31.396694},{"iata":"CAK","name":"Akron Canton Regional Airport","city":"Akron","cityCode":"CAK","country":"US","continent":"NA","region":"OH","lat":40.916099548339844,"lon":-81.44219970703125},{"iata":"CAN","name":"Guangzhou Baiyun International Airport","city":"Guangzhou (Huadu)","cityCode":"CAN","country":"CN","continent":"AS","region":"44","lat":23.392401,"lon":113.299004},{"iata":"CAP","name":"Cap Haitien International Airport","city":"Cap Haitien","cityCode":"CAP","country":"HT","continent":"NA","region":"ND","lat":19.725547,"lon":-72.20071},{"iata":"CBR","name":"Canberra Airport","city":"Canberra","cityCode":"CBR","country":"AU","continent":"SWP","region":"ACT","lat":-35.3069,"lon":149.195007},{"iata":"CCC","name":"Jardines Del Rey Airport","city":"Cayo Coco","cityCode":"CCC","country":"CU","continent":"NA","region":"08","lat":22.461000442499998,"lon":-78.32839965820001},{"iata":"CCJ","name":"Calicut International Airport","city":"Calicut","cityCode":"CCJ","country":"IN","continent":"AS","region":"KL","lat":11.135996,"lon":75.955152},{"iata":"CCS","name":"Maiquetía Simón Bolívar International Airport","city":"Maiquetía","cityCode":"CCS","country":"VE","continent":"SA","region":"X","lat":10.602214,"lon":-66.991174},{"iata":"CCU","name":"Netaji Subhash Chandra Bose International Airport","city":"Kolkata","cityCode":"CCU","country":"IN","continent":"AS","region":"WB","lat":22.654012,"lon":88.44765},{"iata":"CDG","name":"Charles de Gaulle International Airport","city":"Paris (Roissy-en-France, Val-d'Oise)","cityCode":"PAR","country":"FR","continent":"EUME","zone":"EU","region":"IDF","lat":49.00896,"lon":2.554117},{"iata":"CDT","name":"Castellón-Costa Azahar Airport","city":"Castellón de la Plana","cityCode":"CDT","country":"ES","continent":"EUME","zone":"EU","region":"VC","lat":40.213889,"lon":0.073333},{"iata":"CDV","name":"Merle K (Mudhole) Smith Airport","city":"Cordova","cityCode":"CDV","country":"US","continent":"NA","region":"AK","lat":60.491798,"lon":-145.477997},{"iata":"CEB","name":"Mactan Cebu International Airport","city":"Cebu City/Lapu-Lapu City","cityCode":"CEB","country":"PH","continent":"AS","region":"CEB","lat":10.309261,"lon":123.97974},{"iata":"CEI","name":"Mae Fah Luang - Chiang Rai International Airport","city":"Chiang Rai","cityCode":"CEI","country":"TH","continent":"AS","region":"57","lat":19.952299,"lon":99.882896},{"iata":"CFG","name":"Jaime Gonzalez Airport","city":"Cienfuegos","cityCode":"CFG","country":"CU","continent":"NA","region":"06","lat":22.149999618530273,"lon":-80.41419982910156},{"iata":"CFN","name":"Donegal Airport","city":"Donegal","cityCode":"CFN","country":"IE","continent":"EUME","zone":"EU","region":"DL","lat":55.0442008972168,"lon":-8.340999603271484},{"iata":"CFS","name":"Coffs Harbour Airport","city":"Coffs Harbour","cityCode":"CFS","country":"AU","continent":"SWP","region":"NSW","lat":-30.320601,"lon":153.115997},{"iata":"CFU","name":"Corfu Ioannis Kapodistrias International Airport","city":"Kerkyra (Corfu)","cityCode":"CFU","country":"GR","continent":"EUME","zone":"EU","region":"F","lat":39.60145,"lon":19.912179},{"iata":"CGK","name":"Soekarno-Hatta International Airport","city":"Jakarta","cityCode":"JKT","country":"ID","continent":"AS","region":"BT","lat":-6.12557,"lon":106.655998},{"iata":"CGN","name":"Cologne Bonn Airport","city":"Köln (Cologne)","cityCode":"CGN","country":"DE","continent":"EUME","zone":"EU","region":"NW","lat":50.865898,"lon":7.14274},{"iata":"CGO","name":"Zhengzhou Xinzheng International Airport","city":"Zhengzhou","cityCode":"CGO","country":"CN","continent":"AS","region":"41","lat":34.526497,"lon":113.849165},{"iata":"CGQ","name":"Changchun Longjia International Airport","city":"Changchun","cityCode":"CGQ","country":"CN","continent":"AS","region":"22","lat":43.996201,"lon":125.684998},{"iata":"CHA","name":"Chattanooga Metropolitan Airport (Lovell Field)","city":"Chattanooga","cityCode":"CHA","country":"US","continent":"NA","region":"TN","lat":35.035301,"lon":-85.203796},{"iata":"CHC","name":"Christchurch International Airport","city":"Christchurch","cityCode":"CHC","country":"NZ","continent":"SWP","region":"CAN","lat":-43.489029,"lon":172.532065},{"iata":"CHO","name":"Charlottesville Albemarle Airport","city":"Charlottesville","cityCode":"CHO","country":"US","continent":"NA","region":"VA","lat":38.13859939575195,"lon":-78.4529037475586},{"iata":"CHQ","name":"Chania International Airport","city":"Souda","cityCode":"CHQ","country":"GR","continent":"EUME","zone":"EU","region":"M","lat":35.531207,"lon":24.150673},{"iata":"CHS","name":"Charleston International Airport","city":"Charleston","cityCode":"CHS","country":"US","continent":"NA","region":"SC","lat":32.896159,"lon":-80.038151},{"iata":"CID","name":"The Eastern Iowa Airport","city":"Cedar Rapids","cityCode":"CID","country":"US","continent":"NA","region":"IA","lat":41.884701,"lon":-91.7108},{"iata":"CIF","name":"Chifeng Yulong Airport","city":"Chifeng","cityCode":"CIF","country":"CN","continent":"AS","region":"15","lat":42.159723,"lon":118.840971},{"iata":"CIU","name":"Chippewa County International Airport","city":"Kincheloe","cityCode":"CIU","country":"US","continent":"NA","region":"MI","lat":46.242038,"lon":-84.462082},{"iata":"CIX","name":"Capitán FAP José A. Quiñones González International Airport","city":"Chiclayo","cityCode":"CIX","country":"PE","continent":"SA","region":"LAM","lat":-6.789223,"lon":-79.828254},{"iata":"CJB","name":"Coimbatore International Airport","city":"Coimbatore","cityCode":"CJB","country":"IN","continent":"AS","region":"TN","lat":11.03,"lon":77.043404},{"iata":"CJJ","name":"Cheongju International Airport/Cheongju Air Base (K-59/G-513)","city":"Cheongju","cityCode":"CJJ","country":"KR","continent":"AS","region":"43","lat":36.71556,"lon":127.500289},{"iata":"CJU","name":"Jeju International Airport","city":"Jeju City","cityCode":"CJU","country":"KR","continent":"AS","region":"49","lat":33.512058,"lon":126.492548},{"iata":"CKB","name":"North Central West Virginia Airport","city":"Bridgeport","cityCode":"CKB","country":"US","continent":"NA","region":"WV","lat":39.2966,"lon":-80.228104},{"iata":"CKG","name":"Chongqing Jiangbei International Airport","city":"Chongqing","cityCode":"CKG","country":"CN","continent":"AS","region":"50","lat":29.712254,"lon":106.651895},{"iata":"CKY","name":"Ahmed Sékou Touré International Airport","city":"Conakry","cityCode":"CKY","country":"GN","continent":"AF","region":"C","lat":9.57689,"lon":-13.612},{"iata":"CKZ","name":"Çanakkale Airport","city":"Çanakkale","cityCode":"CKZ","country":"TR","continent":"EUME","zone":"EU","region":"17","lat":40.1376991272,"lon":26.4267997742},{"iata":"CLD","name":"McClellan-Palomar Airport","city":"Carlsbad","cityCode":"CLD","country":"US","continent":"NA","region":"CA","lat":33.1283,"lon":-117.279999},{"iata":"CLE","name":"Cleveland Hopkins International Airport","city":"Cleveland","cityCode":"CLE","country":"US","continent":"NA","region":"OH","lat":41.411701,"lon":-81.8498},{"iata":"CLJ","name":"Avram Iancu Cluj International Airport","city":"Cluj-Napoca","cityCode":"CLJ","country":"RO","continent":"EUME","zone":"EU","region":"CJ","lat":46.786042,"lon":23.685733},{"iata":"CLL","name":"Easterwood Field","city":"College Station","cityCode":"CLL","country":"US","continent":"NA","region":"TX","lat":30.5886,"lon":-96.3638},{"iata":"CLO","name":"Alfonso Bonilla Aragon International Airport","city":"Cali","cityCode":"CLO","country":"CO","continent":"SA","region":"VAC","lat":3.542717,"lon":-76.381898},{"iata":"CLT","name":"Charlotte Douglas International Airport","city":"Charlotte","cityCode":"CLT","country":"US","continent":"NA","region":"NC","lat":35.2140007019043,"lon":-80.94309997558594},{"iata":"CMB","name":"Bandaranaike International Colombo Airport","city":"Colombo","cityCode":"CMB","country":"LK","continent":"AS","region":"1","lat":7.180759906768799,"lon":79.88410186767578},{"iata":"CMF","name":"Chambéry Aix les Bains airport","city":"Chambéry","cityCode":"CMF","country":"FR","continent":"EUME","zone":"EU","region":"ARA","lat":45.6381,"lon":5.88023},{"iata":"CMH","name":"John Glenn Columbus International Airport","city":"Columbus","cityCode":"CMH","country":"US","continent":"NA","region":"OH","lat":39.998001,"lon":-82.891899},{"iata":"CMI","name":"University of Illinois Willard Airport","city":"Savoy","cityCode":"CMI","country":"US","continent":"NA","region":"IL","lat":40.039819,"lon":-88.276249},{"iata":"CMN","name":"Mohammed V International Airport","city":"Casablanca","cityCode":"CMN","country":"MA","continent":"EUME","zone":"EU","region":"06","lat":33.3675,"lon":-7.58997},{"iata":"CMW","name":"Ignacio Agramonte International Airport","city":"Camaguey","cityCode":"CMW","country":"CU","continent":"NA","region":"09","lat":21.419909,"lon":-77.848039},{"iata":"CMX","name":"Houghton County Memorial Airport","city":"Hancock","cityCode":"CMX","country":"US","continent":"NA","region":"MI","lat":47.168399810791016,"lon":-88.48909759521484},{"iata":"CND","name":"Mihail Kogălniceanu International Airport","city":"Constanța","cityCode":"CND","country":"RO","continent":"EUME","zone":"EU","region":"CT","lat":44.362202,"lon":28.4883},{"iata":"CNF","name":"Tancredo Neves International Airport","city":"Belo Horizonte","cityCode":"CNF","country":"BR","continent":"SA","region":"MG","lat":-19.63571,"lon":-43.966928},{"iata":"CNJ","name":"Cloncurry Airport","city":"Cloncurry","cityCode":"CNJ","country":"AU","continent":"SWP","region":"QLD","lat":-20.668600082399998,"lon":140.503997803},{"iata":"CNS","name":"Cairns International Airport","city":"Cairns","cityCode":"CNS","country":"AU","continent":"SWP","region":"QLD","lat":-16.878921,"lon":145.74948},{"iata":"CNX","name":"Chiang Mai International Airport","city":"Chiang Mai","cityCode":"CNX","country":"TH","continent":"AS","region":"50","lat":18.766799926799997,"lon":98.962600708},{"iata":"COD","name":"Yellowstone Regional Airport","city":"Cody","cityCode":"COD","country":"US","continent":"NA","region":"WY","lat":44.520199,"lon":-109.024002},{"iata":"COK","name":"Cochin International Airport","city":"Kochi","cityCode":"COK","country":"IN","continent":"AS","region":"KL","lat":10.151047,"lon":76.400838},{"iata":"COO","name":"Cotonou Cadjehoun International Airport","city":"Cotonou","cityCode":"COO","country":"BJ","continent":"AF","region":"AQ","lat":6.35723,"lon":2.38435},{"iata":"COR","name":"Ingeniero Aeronáutico Ambrosio L.V. Taravella International Airport","city":"Cordoba","cityCode":"COR","country":"AR","continent":"SA","region":"X","lat":-31.312346,"lon":-64.208329},{"iata":"COS","name":"City of Colorado Springs Municipal Airport","city":"Colorado Springs","cityCode":"COS","country":"US","continent":"NA","region":"CO","lat":38.805801,"lon":-104.700996},{"iata":"COU","name":"Columbia Regional Airport","city":"Columbia","cityCode":"COU","country":"US","continent":"NA","region":"MO","lat":38.8181,"lon":-92.219597},{"iata":"COV","name":"Çukurova International Airport","city":"Tarsus","cityCode":"COV","country":"TR","continent":"EUME","zone":"EU","region":"33","lat":36.891478,"lon":35.071235},{"iata":"CPH","name":"Copenhagen Kastrup Airport","city":"Copenhagen","cityCode":"CPH","country":"DK","continent":"EUME","zone":"EU","region":"84","lat":55.617900848389,"lon":12.656000137329},{"iata":"CPR","name":"Casper-Natrona County International Airport","city":"Casper","cityCode":"CPR","country":"US","continent":"NA","region":"WY","lat":42.907381,"lon":-106.461609},{"iata":"CPT","name":"Cape Town International Airport","city":"Cape Town","cityCode":"CPT","country":"ZA","continent":"AF","region":"WC","lat":-33.97403,"lon":18.604333},{"iata":"CRK","name":"Clark International Airport / Clark Air Base","city":"Mabalacat","cityCode":"CRK","country":"PH","continent":"AS","region":"PAM","lat":15.186,"lon":120.559998},{"iata":"CRP","name":"Corpus Christi International Airport","city":"Corpus Christi","cityCode":"CRP","country":"US","continent":"NA","region":"TX","lat":27.770399,"lon":-97.501198},{"iata":"CRW","name":"Yeager Airport","city":"Charleston","cityCode":"CRW","country":"US","continent":"NA","region":"WV","lat":38.3731,"lon":-81.593201},{"iata":"CSX","name":"Changsha Huanghua International Airport","city":"Changsha (Changsha)","cityCode":"CSX","country":"CN","continent":"AS","region":"43","lat":28.189199,"lon":113.220001},{"iata":"CTA","name":"Catania-Fontanarossa Airport","city":"Catania","cityCode":"CTA","country":"IT","continent":"EUME","zone":"EU","region":"82","lat":37.466801,"lon":15.0664},{"iata":"CTG","name":"Rafael Nuñez International Airport","city":"Cartagena","cityCode":"CTG","country":"CO","continent":"SA","region":"BOL","lat":10.4424,"lon":-75.513},{"iata":"CTS","name":"New Chitose Airport","city":"Sapporo","cityCode":"CTS","country":"JP","continent":"AS","region":"01","lat":42.774753,"lon":141.690414},{"iata":"CTU","name":"Chengdu Shuangliu International Airport","city":"Chengdu (Shuangliu)","cityCode":"CTU","country":"CN","continent":"AS","region":"51","lat":30.558257,"lon":103.945966},{"iata":"CUC","name":"Camilo Daza International Airport","city":"Cúcuta","cityCode":"CUC","country":"CO","continent":"SA","region":"NSA","lat":7.92757,"lon":-72.5115},{"iata":"CUE","name":"Mariscal Lamar Airport","city":"Cuenca","cityCode":"CUE","country":"EC","continent":"SA","region":"A","lat":-2.88947,"lon":-78.984398},{"iata":"CUN","name":"Cancún International Airport","city":"Cancún","cityCode":"CUN","country":"MX","continent":"NA","region":"ROO","lat":21.040817,"lon":-86.87347},{"iata":"CUR","name":"Hato International Airport","city":"Willemstad","cityCode":"CUR","country":"CW","continent":"NA","region":"U","lat":12.1889,"lon":-68.959801},{"iata":"CUU","name":"General Roberto Fierro Villalobos International Airport","city":"Chihuahua","cityCode":"CUU","country":"MX","continent":"NA","region":"CHH","lat":28.702649,"lon":-105.963764},{"iata":"CUZ","name":"Alejandro Velasco Astete International Airport","city":"Cusco","cityCode":"CUZ","country":"PE","continent":"SA","region":"CUS","lat":-13.535699844400002,"lon":-71.9387969971},{"iata":"CVG","name":"Cincinnati Northern Kentucky International Airport","city":"Cincinnati / Covington","cityCode":"CVG","country":"US","continent":"NA","region":"KY","lat":39.048801,"lon":-84.667801},{"iata":"CWA","name":"Central Wisconsin Airport","city":"Mosinee","cityCode":"CWA","country":"US","continent":"NA","region":"WI","lat":44.777448,"lon":-89.670238},{"iata":"CWB","name":"Curitiba-Afonso Pena International Airport","city":"Curitiba","cityCode":"CWB","country":"BR","continent":"SA","region":"PR","lat":-25.5285,"lon":-49.1758},{"iata":"CWL","name":"Cardiff International Airport","city":"Cardiff","cityCode":"CWL","country":"GB","continent":"EUME","zone":"EU","region":"WLS","lat":51.396702,"lon":-3.34333},{"iata":"CXI","name":"Cassidy International Airport","city":"Kiritimati","cityCode":"CXI","country":"KI","continent":"SWP","region":"L","lat":1.986278,"lon":-157.350011},{"iata":"CYO","name":"Vilo Acuña International Airport","city":"Cayo Largo del Sur","cityCode":"CYO","country":"CU","continent":"NA","region":"99","lat":21.6165008545,"lon":-81.5459976196},{"iata":"CYS","name":"Cheyenne Regional Jerry Olson Field","city":"Cheyenne","cityCode":"CYS","country":"US","continent":"NA","region":"WY","lat":41.155701,"lon":-104.811997},{"iata":"CZL","name":"Mohamed Boudiaf International Airport","city":"Constantine","cityCode":"CZL","country":"DZ","continent":"EUME","zone":"EU","region":"25","lat":36.276001,"lon":6.62039},{"iata":"CZM","name":"Cozumel International Airport","city":"Cozumel","cityCode":"CZM","country":"MX","continent":"NA","region":"ROO","lat":20.514922,"lon":-86.928538},{"iata":"CZU","name":"Las Brujas Airport","city":"Corozal","cityCode":"CZU","country":"CO","continent":"SA","region":"SUC","lat":9.33274,"lon":-75.2856},{"iata":"CZX","name":"Changzhou Benniu International Airport","city":"Changzhou","cityCode":"CZX","country":"CN","continent":"AS","region":"32","lat":31.920485,"lon":119.77546},{"iata":"DAB","name":"Daytona Beach International Airport","city":"Daytona Beach","cityCode":"DAB","country":"US","continent":"NA","region":"FL","lat":29.18255,"lon":-81.059464},{"iata":"DAC","name":"Hazrat Shahjalal International Airport","city":"Dhaka","cityCode":"DAC","country":"BD","continent":"AS","region":"C","lat":23.843347,"lon":90.397783},{"iata":"DAD","name":"Da Nang International Airport","city":"Da Nang","cityCode":"DAD","country":"VN","continent":"AS","region":"SCC","lat":16.0439,"lon":108.198997},{"iata":"DAM","name":"Damascus International Airport","city":"Damascus","cityCode":"DAM","country":"SY","continent":"EUME","zone":"ME","region":"DI","lat":33.4114990234375,"lon":36.51559829711914},{"iata":"DAR","name":"Julius Nyerere International Airport","city":"Dar es Salaam","cityCode":"DAR","country":"TZ","continent":"AF","region":"02","lat":-6.873499,"lon":39.207288},{"iata":"DAV","name":"Enrique Malek International Airport","city":"David","cityCode":"DAV","country":"PA","continent":"NA","region":"4","lat":8.388983,"lon":-82.436425},{"iata":"DAY","name":"James M. Cox Dayton International Airport","city":"Dayton","cityCode":"DAY","country":"US","continent":"NA","region":"OH","lat":39.902401,"lon":-84.219398},{"iata":"DBM","name":"Debre Markos Airport","city":"Debre Markos","cityCode":"DBM","country":"ET","continent":"AF","region":"AM","lat":10.321501,"lon":37.741887},{"iata":"DBO","name":"Dubbo City Regional Airport","city":"Dubbo","cityCode":"DBO","country":"AU","continent":"SWP","region":"NSW","lat":-32.2167015076,"lon":148.574996948},{"iata":"DBV","name":"Dubrovnik Ruđer Bošković Airport","city":"Dubrovnik","cityCode":"DBV","country":"HR","continent":"EUME","zone":"EU","region":"19","lat":42.562247,"lon":18.265543},{"iata":"DCA","name":"Ronald Reagan Washington National Airport","city":"Washington","cityCode":"WAS","country":"US","continent":"NA","region":"DC","lat":38.8521,"lon":-77.037697},{"iata":"DCY","name":"Daocheng Yading Airport","city":"Garzê (Daocheng)","cityCode":"DCY","country":"CN","continent":"AS","region":"51","lat":29.31632,"lon":100.060317},{"iata":"DDC","name":"Dodge City Regional Airport","city":"Dodge City","cityCode":"DDC","country":"US","continent":"NA","region":"KS","lat":37.76340103149414,"lon":-99.9655990600586},{"iata":"DDG","name":"Dandong Langtou International Airport","city":"Dandong (Zhenxing)","cityCode":"DDG","country":"CN","continent":"AS","region":"21","lat":40.025453,"lon":124.28669},{"iata":"DEB","name":"Debrecen International Airport","city":"Debrecen","cityCode":"DEB","country":"HU","continent":"EUME","zone":"EU","region":"HB","lat":47.489469,"lon":21.616278},{"iata":"DEC","name":"Decatur Airport","city":"Decatur","cityCode":"DEC","country":"US","continent":"NA","region":"IL","lat":39.834598541259766,"lon":-88.8656997680664},{"iata":"DED","name":"Dehradun Jolly Grant Airport","city":"Dehradun (Jauligrant)","cityCode":"DED","country":"IN","continent":"AS","region":"UT","lat":30.189243,"lon":78.176651},{"iata":"DEL","name":"Indira Gandhi International Airport","city":"New Delhi","cityCode":"DEL","country":"IN","continent":"AS","region":"DL","lat":28.55563,"lon":77.09519},{"iata":"DEM","name":"Dembidollo Airport","city":"Dembidollo","cityCode":"DEM","country":"ET","continent":"AF","region":"OR","lat":8.554,"lon":34.858002},{"iata":"DEN","name":"Denver International Airport","city":"Denver","cityCode":"DEN","country":"US","continent":"NA","region":"CO","lat":39.860027,"lon":-104.673792},{"iata":"DFW","name":"Dallas Fort Worth International Airport","city":"Dallas-Fort Worth","cityCode":"DFW","country":"US","continent":"NA","region":"TX","lat":32.896801,"lon":-97.038002},{"iata":"DGO","name":"General Guadalupe Victoria International Airport","city":"Durango","cityCode":"DGO","country":"MX","continent":"NA","region":"DUR","lat":24.125468,"lon":-104.527938},{"iata":"DIA","name":"Doha International Airport","city":"Doha","cityCode":"DIA","country":"QA","continent":"EUME","zone":"ME","region":"DA","lat":25.259431,"lon":51.565528},{"iata":"DIK","name":"Dickinson Theodore Roosevelt Regional Airport","city":"Dickinson","cityCode":"DIK","country":"US","continent":"NA","region":"ND","lat":46.797533,"lon":-102.801905},{"iata":"DIL","name":"Presidente Nicolau Lobato International Airport","city":"Dili","cityCode":"DIL","country":"TL","continent":"AS","region":"DI","lat":-8.546562,"lon":125.524507},{"iata":"DIR","name":"Aba Tenna Dejazmach Yilma International Airport","city":"Dire Dawa","cityCode":"DIR","country":"ET","continent":"AF","region":"DD","lat":9.623549,"lon":41.855027},{"iata":"DIY","name":"Diyarbakır Airport","city":"Diyarbakır","cityCode":"DIY","country":"TR","continent":"EUME","zone":"EU","region":"21","lat":37.893902,"lon":40.201},{"iata":"DJE","name":"Djerba Zarzis International Airport","city":"Mellita","cityCode":"DJE","country":"TN","continent":"EUME","zone":"EU","region":"82","lat":33.873719,"lon":10.7773},{"iata":"DLA","name":"Douala International Airport","city":"Douala","cityCode":"DLA","country":"CM","continent":"AF","region":"LT","lat":4.00608,"lon":9.71948},{"iata":"DLC","name":"Dalian Zhoushuizi International Airport","city":"Dalian (Ganjingzi)","cityCode":"DLC","country":"CN","continent":"AS","region":"21","lat":38.965719,"lon":121.538477},{"iata":"DLG","name":"Dillingham Airport","city":"Dillingham","cityCode":"DLG","country":"US","continent":"NA","region":"AK","lat":59.04470062,"lon":-158.5050049},{"iata":"DLH","name":"Duluth International Airport","city":"Duluth","cityCode":"DLH","country":"US","continent":"NA","region":"MN","lat":46.841873,"lon":-92.198746},{"iata":"DLI","name":"Lien Khuong Airport","city":"Da Lat","cityCode":"DLI","country":"VN","continent":"AS","region":"CH","lat":11.750556,"lon":108.366997},{"iata":"DLM","name":"Dalaman International Airport","city":"Dalaman","cityCode":"DLM","country":"TR","continent":"EUME","zone":"EU","region":"48","lat":36.7131,"lon":28.7925},{"iata":"DLU","name":"Dali Fengyi Airport","city":"Dali (Xiaguan)","cityCode":"DLU","country":"CN","continent":"AS","region":"53","lat":25.649401,"lon":100.319},{"iata":"DME","name":"Domodedovo International Airport","city":"Moscow","cityCode":"MOW","country":"RU","continent":"EUME","zone":"EU","region":"MOS","lat":55.408798,"lon":37.9063},{"iata":"DMK","name":"Don Mueang International Airport","city":"Bangkok","cityCode":"BKK","country":"TH","continent":"AS","region":"10","lat":13.9126,"lon":100.607002},{"iata":"DMM","name":"King Fahd International Airport","city":"Ad Dammam","cityCode":"DMM","country":"SA","continent":"EUME","zone":"ME","region":"04","lat":26.4691,"lon":49.798209},{"iata":"DNH","name":"Dunhuang Mogao International Airport","city":"Dunhuang","cityCode":"DNH","country":"CN","continent":"AS","region":"62","lat":40.161953,"lon":94.812827},{"iata":"DNZ","name":"Çardak Airport","city":"Denizli","cityCode":"DNZ","country":"TR","continent":"EUME","zone":"EU","region":"20","lat":37.7855987549,"lon":29.7012996674},{"iata":"DOH","name":"Hamad International Airport","city":"Doha","cityCode":"DOH","country":"QA","continent":"EUME","zone":"ME","region":"DA","lat":25.273056,"lon":51.608056},{"iata":"DOM","name":"Douglas-Charles Airport","city":"Marigot","cityCode":"DOM","country":"DM","continent":"NA","region":"02","lat":15.546673,"lon":-61.301082},{"iata":"DOY","name":"Dongying Shengli Airport","city":"Dongying (Kenli)","cityCode":"DOY","country":"CN","continent":"AS","region":"37","lat":37.50137,"lon":118.789863},{"iata":"DPO","name":"Devonport Airport","city":"Devonport","cityCode":"DPO","country":"AU","continent":"SWP","region":"TAS","lat":-41.1697006226,"lon":146.429992676},{"iata":"DPS","name":"Denpasar I Gusti Ngurah Rai International Airport","city":"Kuta, Badung","cityCode":"DPS","country":"ID","continent":"AS","region":"BA","lat":-8.748409,"lon":115.167123},{"iata":"DQA","name":"Daqing Sartu Airport","city":"Daqing","cityCode":"DQA","country":"CN","continent":"AS","region":"23","lat":46.750883,"lon":125.138642},{"iata":"DRO","name":"Durango La Plata County Airport","city":"Durango","cityCode":"DRO","country":"US","continent":"NA","region":"CO","lat":37.151501,"lon":-107.753998},{"iata":"DRS","name":"Dresden Airport","city":"Dresden","cityCode":"DRS","country":"DE","continent":"EUME","zone":"EU","region":"SN","lat":51.134123,"lon":13.767831},{"iata":"DRW","name":"Darwin International Airport / RAAF Darwin","city":"Darwin","cityCode":"DRW","country":"AU","continent":"SWP","region":"NT","lat":-12.41497,"lon":130.88185},{"iata":"DSE","name":"Kombolcha Airport","city":"Dessie","cityCode":"DSE","country":"ET","continent":"AF","region":"AM","lat":11.10975,"lon":39.725911},{"iata":"DSM","name":"Des Moines International Airport","city":"Des Moines","cityCode":"DSM","country":"US","continent":"NA","region":"IA","lat":41.534027,"lon":-93.656719},{"iata":"DSN","name":"Ordos Ejin Horo International Airport","city":"Ordos","cityCode":"DSN","country":"CN","continent":"AS","region":"15","lat":39.493514,"lon":109.8599},{"iata":"DSS","name":"Blaise Diagne International Airport","city":"Dakar","cityCode":"DSS","country":"SN","continent":"AF","region":"DK","lat":14.670878,"lon":-17.072829},{"iata":"DTW","name":"Detroit Metropolitan Wayne County Airport","city":"Detroit","cityCode":"DTW","country":"US","continent":"NA","region":"MI","lat":42.21377,"lon":-83.353786},{"iata":"DUB","name":"Dublin Airport","city":"Dublin","cityCode":"DUB","country":"IE","continent":"EUME","zone":"EU","region":"D","lat":53.428713,"lon":-6.262121},{"iata":"DUD","name":"Dunedin International Airport","city":"Dunedin","cityCode":"DUD","country":"NZ","continent":"SWP","region":"OTA","lat":-45.929017,"lon":170.197758},{"iata":"DUR","name":"King Shaka International Airport","city":"Durban","cityCode":"DUR","country":"ZA","continent":"AF","region":"NL","lat":-29.6144444444,"lon":31.1197222222},{"iata":"DUS","name":"Düsseldorf Airport","city":"Düsseldorf","cityCode":"DUS","country":"DE","continent":"EUME","zone":"EU","region":"NW","lat":51.289501,"lon":6.76678},{"iata":"DVL","name":"Devils Lake Regional Airport","city":"Devils Lake","cityCode":"DVL","country":"US","continent":"NA","region":"ND","lat":48.115454,"lon":-98.908796},{"iata":"DVO","name":"Francisco Bangoy International Airport","city":"Davao","cityCode":"DVO","country":"PH","continent":"AS","region":"DVO","lat":7.12552,"lon":125.646004},{"iata":"DXB","name":"Dubai International Airport","city":"Dubai","cityCode":"DXB","country":"AE","continent":"EUME","zone":"ME","region":"DU","lat":25.24979,"lon":55.370992},{"iata":"DYG","name":"Zhangjiajie Hehua International Airport","city":"Zhangjiajie (Yongding)","cityCode":"DYG","country":"CN","continent":"AS","region":"43","lat":29.104749,"lon":110.442786},{"iata":"DYU","name":"Dushanbe International Airport","city":"Dushanbe","cityCode":"DYU","country":"TJ","continent":"AS","region":"DU","lat":38.543746,"lon":68.822977},{"iata":"DZH","name":"Dazhou Jinya Airport","city":"Dazhou (Dachuan)","cityCode":"DZH","country":"CN","continent":"AS","region":"51","lat":31.048815,"lon":107.435646},{"iata":"EAR","name":"Kearney Regional Airport","city":"Kearney","cityCode":"EAR","country":"US","continent":"NA","region":"NE","lat":40.727001,"lon":-99.006798},{"iata":"EAS","name":"San Sebastián Airport","city":"Hondarribia","cityCode":"EAS","country":"ES","continent":"EUME","zone":"EU","region":"PV","lat":43.356499,"lon":-1.79061},{"iata":"EAT","name":"Pangborn Memorial Airport","city":"Wenatchee","cityCode":"EAT","country":"US","continent":"NA","region":"WA","lat":47.398899,"lon":-120.207001},{"iata":"EAU","name":"Chippewa Valley Regional Airport","city":"Eau Claire","cityCode":"EAU","country":"US","continent":"NA","region":"WI","lat":44.86579895019531,"lon":-91.48429870605469},{"iata":"EBB","name":"Entebbe International Airport","city":"Entebbe","cityCode":"EBB","country":"UG","continent":"AF","region":"C","lat":0.042386,"lon":32.443501},{"iata":"EBL","name":"Erbil International Airport","city":"Arbil","cityCode":"EBL","country":"IQ","continent":"EUME","zone":"ME","region":"AR","lat":36.236047,"lon":43.946615},{"iata":"ECN","name":"Ercan International Airport","city":"Tymbou (Kirklar)","cityCode":"ECN","country":"CY","continent":"EUME","zone":"EU","region":"02","lat":35.153064,"lon":33.507352},{"iata":"ECP","name":"Northwest Florida Beaches International Airport","city":"Panama City Beach","cityCode":"ECP","country":"US","continent":"NA","region":"FL","lat":30.357106,"lon":-85.795414},{"iata":"EDI","name":"Edinburgh Airport","city":"Edinburgh","cityCode":"EDI","country":"GB","continent":"EUME","zone":"EU","region":"SCT","lat":55.950145,"lon":-3.372288},{"iata":"EDL","name":"Eldoret International Airport","city":"Eldoret","cityCode":"EDL","country":"KE","continent":"AF","region":"27","lat":0.404458,"lon":35.238899},{"iata":"EDO","name":"Balıkesir Koca Seyit Airport","city":"Edremit","cityCode":"EDO","country":"TR","continent":"EUME","zone":"EU","region":"10","lat":39.552533,"lon":27.010192},{"iata":"EFL","name":"Kefallinia Airport","city":"Kefallinia Island","cityCode":"EFL","country":"GR","continent":"EUME","zone":"EU","region":"F","lat":38.12009811401367,"lon":20.500499725341797},{"iata":"EGC","name":"Bergerac Dordogne-Périgord airport","city":"Bergerac","cityCode":"EGC","country":"FR","continent":"EUME","zone":"EU","region":"NAQ","lat":44.825298,"lon":0.518611},{"iata":"EGE","name":"Eagle County Regional Airport","city":"Eagle","cityCode":"EGE","country":"US","continent":"NA","region":"CO","lat":39.64260101,"lon":-106.9179993},{"iata":"EIS","name":"Terrance B. Lettsome International Airport","city":"Beef Island","cityCode":"EIS","country":"VG","continent":"NA","region":"U","lat":18.445492,"lon":-64.541707},{"iata":"EJA","name":"Yariguíes Airport","city":"Barrancabermeja","cityCode":"EJA","country":"CO","continent":"SA","region":"SAN","lat":7.02433,"lon":-73.8068},{"iata":"ELH","name":"North Eleuthera Airport","city":"North Eleuthera","cityCode":"ELH","country":"BS","continent":"NA","region":"HI","lat":25.475823,"lon":-76.680784},{"iata":"ELP","name":"El Paso International Airport","city":"El Paso","cityCode":"ELP","country":"US","continent":"NA","region":"TX","lat":31.809908,"lon":-106.375607},{"iata":"ELQ","name":"Prince Naif bin Abdulaziz International Airport","city":"Qassim","cityCode":"ELQ","country":"SA","continent":"EUME","zone":"ME","region":"05","lat":26.302799,"lon":43.774399},{"iata":"EMA","name":"East Midlands Airport","city":"Nottingham, Leicestershire","cityCode":"EMA","country":"GB","continent":"EUME","zone":"EU","region":"ENG","lat":52.8311,"lon":-1.32806},{"iata":"EMD","name":"Emerald Airport","city":"Emerald","cityCode":"EMD","country":"AU","continent":"SWP","region":"QLD","lat":-23.5674991608,"lon":148.179000854},{"iata":"ENU","name":"Akanu Ibiam International Airport","city":"Enegu","cityCode":"ENU","country":"NG","continent":"AF","region":"EN","lat":6.473718,"lon":7.560463},{"iata":"ERC","name":"Erzincan Airport","city":"Erzincan","cityCode":"ERC","country":"TR","continent":"EUME","zone":"EU","region":"24","lat":39.7102012634,"lon":39.527000427199994},{"iata":"ERH","name":"Moulay Ali Cherif Airport","city":"Errachidia","cityCode":"ERH","country":"MA","continent":"EUME","zone":"EU","region":"08","lat":31.9475002289,"lon":-4.39833021164},{"iata":"ERI","name":"Erie International Tom Ridge Field","city":"Erie","cityCode":"ERI","country":"US","continent":"NA","region":"PA","lat":42.083127,"lon":-80.173867},{"iata":"ERZ","name":"Erzurum International Airport","city":"Erzurum","cityCode":"ERZ","country":"TR","continent":"EUME","zone":"EU","region":"25","lat":39.956501,"lon":41.1702},{"iata":"ESB","name":"Esenboğa International Airport","city":"Ankara","cityCode":"ESB","country":"TR","continent":"EUME","zone":"EU","region":"06","lat":40.128101,"lon":32.995098},{"iata":"ETZ","name":"Metz-Nancy-Lorraine Airport","city":"Goin","cityCode":"ETZ","country":"FR","continent":"EUME","zone":"EU","region":"GES","lat":48.982101,"lon":6.25132},{"iata":"EUG","name":"Eugene Airport","city":"Eugene","cityCode":"EUG","country":"US","continent":"NA","region":"OR","lat":44.124599,"lon":-123.211998},{"iata":"EUN","name":"Laayoune Hassan I International Airport","city":"El Aaiún","cityCode":"EUN","country":"EH","continent":"AF","region":"U","lat":27.142467,"lon":-13.224947},{"iata":"EVE","name":"Harstad/Narvik Airport","city":"Evenes","cityCode":"EVE","country":"NO","continent":"EUME","zone":"EU","region":"18","lat":68.491302,"lon":16.678101},{"iata":"EVN","name":"Zvartnots International Airport","city":"Yerevan","cityCode":"EVN","country":"AM","continent":"EUME","zone":"EU","region":"ER","lat":40.148941,"lon":44.397887},{"iata":"EVV","name":"Evansville Regional Airport","city":"Evansville","cityCode":"EVV","country":"US","continent":"NA","region":"IN","lat":38.0369987488,"lon":-87.5324020386},{"iata":"EWN","name":"Coastal Carolina Regional Airport","city":"New Bern","cityCode":"EWN","country":"US","continent":"NA","region":"NC","lat":35.0730018616,"lon":-77.04290008539999},{"iata":"EWR","name":"Newark Liberty International Airport","city":"Newark","cityCode":"NYC","country":"US","continent":"NA","region":"NJ","lat":40.6894,"lon":-74.170545},{"iata":"EXT","name":"Exeter International Airport","city":"Exeter, Devon","cityCode":"EXT","country":"GB","continent":"EUME","zone":"EU","region":"ENG","lat":50.734261,"lon":-3.413984},{"iata":"EYP","name":"El Alcaravan - Yopal Airport","city":"Yopal","cityCode":"EYP","country":"CO","continent":"SA","region":"CAS","lat":5.31911,"lon":-72.384},{"iata":"EYW","name":"Key West International Airport","city":"Key West","cityCode":"EYW","country":"US","continent":"NA","region":"FL","lat":24.556119,"lon":-81.759579},{"iata":"EZE","name":"Ezeiza International Airport - Ministro Pistarini","city":"Buenos Aires (Ezeiza)","cityCode":"BUE","country":"AR","continent":"SA","region":"B","lat":-34.8222,"lon":-58.5358},{"iata":"EZS","name":"Elazığ Airport","city":"Elazığ","cityCode":"EZS","country":"TR","continent":"EUME","zone":"EU","region":"23","lat":38.597974,"lon":39.28348},{"iata":"FAI","name":"Fairbanks International Airport","city":"Fairbanks","cityCode":"FAI","country":"US","continent":"NA","region":"AK","lat":64.815102,"lon":-147.856003},{"iata":"FAO","name":"Faro - Gago Coutinho International Airport","city":"Faro","cityCode":"FAO","country":"PT","continent":"EUME","zone":"EU","region":"08","lat":37.015909,"lon":-7.970939},{"iata":"FAR","name":"Hector International Airport","city":"Fargo","cityCode":"FAR","country":"US","continent":"NA","region":"ND","lat":46.9207,"lon":-96.815804},{"iata":"FAT","name":"Fresno Yosemite International Airport","city":"Fresno","cityCode":"FAT","country":"US","continent":"NA","region":"CA","lat":36.775767,"lon":-119.718018},{"iata":"FAY","name":"Fayetteville Regional Airport - Grannis Field","city":"Fayetteville","cityCode":"FAY","country":"US","continent":"NA","region":"NC","lat":34.991199,"lon":-78.880302},{"iata":"FBM","name":"Lubumbashi International Airport","city":"Lubumbashi","cityCode":"FBM","country":"CD","continent":"AF","region":"HK","lat":-11.591494,"lon":27.530753},{"iata":"FCA","name":"Glacier Park International Airport","city":"Kalispell","cityCode":"FCA","country":"US","continent":"NA","region":"MT","lat":48.310501,"lon":-114.255997},{"iata":"FCO","name":"Rome–Fiumicino Leonardo da Vinci International Airport","city":"Rome","cityCode":"ROM","country":"IT","continent":"EUME","zone":"EU","region":"62","lat":41.804532,"lon":12.251998},{"iata":"FDF","name":"Martinique Aimé Césaire International Airport","city":"Fort-de-France","cityCode":"FDF","country":"MQ","continent":"NA","region":"U","lat":14.591,"lon":-61.003201},{"iata":"FEG","name":"Fergana International Airport","city":"Fergana","cityCode":"FEG","country":"UZ","continent":"AS","region":"FA","lat":40.358799,"lon":71.745003},{"iata":"FEZ","name":"Fes Saïss International Airport","city":"Saïss","cityCode":"FEZ","country":"MA","continent":"EUME","zone":"EU","region":"03","lat":33.927299,"lon":-4.97796},{"iata":"FIH","name":"Ndjili International Airport","city":"Kinshasa","cityCode":"FIH","country":"CD","continent":"AF","region":"KN","lat":-4.38575,"lon":15.4446},{"iata":"FKI","name":"Bangoka International Airport","city":"Kisangani","cityCode":"FKI","country":"CD","continent":"AF","region":"TO","lat":0.481639,"lon":25.337999},{"iata":"FKS","name":"Fukushima Airport","city":"Sukagawa","cityCode":"FKS","country":"JP","continent":"AS","region":"07","lat":37.22740173339844,"lon":140.43099975585938},{"iata":"FLA","name":"Gustavo Artunduaga Paredes Airport","city":"Florencia","cityCode":"FLA","country":"CO","continent":"SA","region":"CAQ","lat":1.58919,"lon":-75.5644},{"iata":"FLG","name":"Flagstaff Pulliam Airport","city":"Flagstaff","cityCode":"FLG","country":"US","continent":"NA","region":"AZ","lat":35.139757,"lon":-111.669826},{"iata":"FLL","name":"Fort Lauderdale Hollywood International Airport","city":"Fort Lauderdale","cityCode":"FLL","country":"US","continent":"NA","region":"FL","lat":26.072599,"lon":-80.152702},{"iata":"FLN","name":"Hercílio Luz International Airport","city":"Florianópolis","cityCode":"FLN","country":"BR","continent":"SA","region":"SC","lat":-27.670279,"lon":-48.552502},{"iata":"FLO","name":"Florence Regional Airport","city":"Florence","cityCode":"FLO","country":"US","continent":"NA","region":"SC","lat":34.18539810180664,"lon":-79.7238998413086},{"iata":"FLR","name":"Florence Airport, Peretola","city":"Firenze (FI)","cityCode":"FLR","country":"IT","continent":"EUME","zone":"EU","region":"52","lat":43.808558,"lon":11.202822},{"iata":"FMN","name":"Four Corners Regional Airport","city":"Farmington","cityCode":"FMN","country":"US","continent":"NA","region":"NM","lat":36.741199,"lon":-108.230003},{"iata":"FMO","name":"Münster Osnabrück Airport","city":"Greven","cityCode":"FMO","country":"DE","continent":"EUME","zone":"EU","region":"NW","lat":52.133816,"lon":7.688482},{"iata":"FNA","name":"Lungi International Airport","city":"Freetown (Lungi-Town)","cityCode":"FNA","country":"SL","continent":"AF","region":"N","lat":8.61644,"lon":-13.1955},{"iata":"FNC","name":"Cristiano Ronaldo International Airport","city":"Funchal","cityCode":"FNC","country":"PT","continent":"EUME","zone":"EU","region":"30","lat":32.697812,"lon":-16.774613},{"iata":"FNJ","name":"Pyongyang Sunan International Airport","city":"Pyongyang","cityCode":"FNJ","country":"KP","continent":"AS","region":"01","lat":39.224098,"lon":125.669998},{"iata":"FNT","name":"Bishop International Airport","city":"Flint","cityCode":"FNT","country":"US","continent":"NA","region":"MI","lat":42.969294,"lon":-83.743355},{"iata":"FOC","name":"Fuzhou Changle International Airport","city":"Fuzhou (Changle)","cityCode":"FOC","country":"CN","continent":"AS","region":"35","lat":25.929254,"lon":119.672524},{"iata":"FOD","name":"Fort Dodge Regional Airport","city":"Fort Dodge","cityCode":"FOD","country":"US","continent":"NA","region":"IA","lat":42.552624,"lon":-94.191237},{"iata":"FOR","name":"Pinto Martins International Airport","city":"Fortaleza","cityCode":"FOR","country":"BR","continent":"SA","region":"CE","lat":-3.775833,"lon":-38.532222},{"iata":"FPO","name":"Grand Bahama International Airport","city":"Freeport","cityCode":"FPO","country":"BS","continent":"NA","region":"FP","lat":26.557996,"lon":-78.695583},{"iata":"FRA","name":"Frankfurt Main Airport","city":"Frankfurt am Main","cityCode":"FRA","country":"DE","continent":"EUME","zone":"EU","region":"HE","lat":50.026706,"lon":8.55835},{"iata":"FSC","name":"Figari Sud-Corse Airport","city":"Figari","cityCode":"FSC","country":"FR","continent":"EUME","zone":"EU","region":"COR","lat":41.50185,"lon":9.097092},{"iata":"FSD","name":"Sioux Falls Regional Airport","city":"Sioux Falls","cityCode":"FSD","country":"US","continent":"NA","region":"SD","lat":43.585463,"lon":-96.741152},{"iata":"FSM","name":"Fort Smith Regional Airport","city":"Fort Smith","cityCode":"FSM","country":"US","continent":"NA","region":"AR","lat":35.336601,"lon":-94.367401},{"iata":"FSZ","name":"Mount Fuji Shizuoka Airport","city":"Makinohara / Shimada","cityCode":"FSZ","country":"JP","continent":"AS","region":"22","lat":34.795022,"lon":138.190976},{"iata":"FUE","name":"Fuerteventura Airport","city":"El Matorral","cityCode":"FUE","country":"ES","continent":"EUME","zone":"EU","region":"CN","lat":28.4527,"lon":-13.8638},{"iata":"FUG","name":"Fuyang Xiguan Airport","city":"Yingzhou, Fuyang","cityCode":"FUG","country":"CN","continent":"AS","region":"34","lat":32.882157,"lon":115.734364},{"iata":"FUJ","name":"Fukue Airport","city":"Goto","cityCode":"FUJ","country":"JP","continent":"AS","region":"42","lat":32.666302,"lon":128.832993},{"iata":"FUK","name":"Fukuoka Airport","city":"Fukuoka","cityCode":"FUK","country":"JP","continent":"AS","region":"40","lat":33.585899353027344,"lon":130.4510040283203},{"iata":"FUN","name":"Funafuti International Airport","city":"Funafuti","cityCode":"FUN","country":"TV","continent":"SWP","region":"FUN","lat":-8.523885,"lon":179.196976},{"iata":"FWA","name":"Fort Wayne International Airport","city":"Fort Wayne","cityCode":"FWA","country":"US","continent":"NA","region":"IN","lat":40.978896,"lon":-85.194465},{"iata":"FYJ","name":"Fuyuan Dongji Airport","city":"Fuyuan","cityCode":"FYJ","country":"CN","continent":"AS","region":"23","lat":48.197219,"lon":134.36298},{"iata":"GAJ","name":"Yamagata Airport","city":"Higashine","cityCode":"GAJ","country":"JP","continent":"AS","region":"06","lat":38.4119,"lon":140.371002},{"iata":"GAU","name":"Lokpriya Gopinath Bordoloi International Airport","city":"Guwahati","cityCode":"GAU","country":"IN","continent":"AS","region":"AS","lat":26.106654,"lon":91.585226},{"iata":"GAY","name":"Gaya Airport","city":"Gaya","cityCode":"GAY","country":"IN","continent":"AS","region":"BR","lat":24.744301,"lon":84.951202},{"iata":"GBE","name":"Sir Seretse Khama International Airport","city":"Gaborone","cityCode":"GBE","country":"BW","continent":"AF","region":"GA","lat":-24.555201,"lon":25.9182},{"iata":"GCC","name":"Northeast Wyoming Regional Airport","city":"Gillette","cityCode":"GCC","country":"US","continent":"NA","region":"WY","lat":44.3489,"lon":-105.539001},{"iata":"GCI","name":"Guernsey Airport","city":"Saint Peter Port","cityCode":"GCI","country":"GG","continent":"EUME","zone":"EU","region":"G","lat":49.435001,"lon":-2.60197},{"iata":"GCK","name":"Garden City Regional Airport","city":"Garden City","cityCode":"GCK","country":"US","continent":"NA","region":"KS","lat":37.9275016785,"lon":-100.723999023},{"iata":"GCM","name":"Owen Roberts International Airport","city":"George Town","cityCode":"GCM","country":"KY","continent":"NA","region":"GC","lat":19.292801,"lon":-81.357697},{"iata":"GDE","name":"Gode Airport","city":"Gode","cityCode":"GDE","country":"ET","continent":"AF","region":"SO","lat":5.93513011932,"lon":43.5786018372},{"iata":"GDL","name":"Guadalajara International Airport","city":"Guadalajara","cityCode":"GDL","country":"MX","continent":"NA","region":"JAL","lat":20.523342,"lon":-103.310108},{"iata":"GDN","name":"Gdańsk Lech Wałęsa Airport","city":"Gdańsk","cityCode":"GDN","country":"PL","continent":"EUME","zone":"EU","region":"PM","lat":54.377602,"lon":18.4662},{"iata":"GDQ","name":"Gondar Airport","city":"Azezo","cityCode":"GDQ","country":"ET","continent":"AF","region":"AM","lat":12.5199,"lon":37.433998},{"iata":"GEG","name":"Spokane International Airport","city":"Spokane","cityCode":"GEG","country":"US","continent":"NA","region":"WA","lat":47.6199,"lon":-117.533997},{"iata":"GEO","name":"Cheddi Jagan International Airport","city":"Georgetown","cityCode":"GEO","country":"GY","continent":"SA","region":"DE","lat":6.49855,"lon":-58.254101},{"iata":"GET","name":"Geraldton Airport","city":"Moonyoonooka","cityCode":"GET","country":"AU","continent":"SWP","region":"WA","lat":-28.796101,"lon":114.707001},{"iata":"GFF","name":"Griffith Airport","city":"Griffith","cityCode":"GFF","country":"AU","continent":"SWP","region":"NSW","lat":-34.2508010864,"lon":146.067001343},{"iata":"GGG","name":"East Texas Regional Airport","city":"Longview","cityCode":"GGG","country":"US","continent":"NA","region":"TX","lat":32.38399887084961,"lon":-94.71150207519531},{"iata":"GGR","name":"Garowe Airport","city":"Garowe","cityCode":"GGR","country":"SO","continent":"AF","region":"NU","lat":8.458474,"lon":48.568136},{"iata":"GGT","name":"Exuma International Airport","city":"Moss Town","cityCode":"GGT","country":"BS","continent":"NA","region":"EX","lat":23.562599,"lon":-75.877998},{"iata":"GHB","name":"Governor's Harbour Airport","city":"Governor's Harbour","cityCode":"GHB","country":"BS","continent":"NA","region":"CE","lat":25.2847,"lon":-76.331001},{"iata":"GIB","name":"Gibraltar Airport","city":"Gibraltar","cityCode":"GIB","country":"GI","continent":"EUME","zone":"EU","region":"U","lat":36.151679,"lon":-5.34978},{"iata":"GIG","name":"Rio Galeão – Tom Jobim International Airport","city":"Rio De Janeiro","cityCode":"RIO","country":"BR","continent":"SA","region":"RJ","lat":-22.809999,"lon":-43.250557},{"iata":"GIS","name":"Gisborne Airport","city":"Gisborne","cityCode":"GIS","country":"NZ","continent":"SWP","region":"GIS","lat":-38.6633,"lon":177.977997},{"iata":"GIZ","name":"Jizan Regional Airport / King Abdullah bin Abdulaziz Airport","city":"Jizan","cityCode":"GIZ","country":"SA","continent":"EUME","zone":"ME","region":"09","lat":16.9011,"lon":42.5858},{"iata":"GJT","name":"Grand Junction Regional Airport","city":"Grand Junction","cityCode":"GJT","country":"US","continent":"NA","region":"CO","lat":39.126663,"lon":-108.529387},{"iata":"GLA","name":"Glasgow Airport","city":"Glasgow","cityCode":"GLA","country":"GB","continent":"EUME","zone":"EU","region":"SCT","lat":55.871899,"lon":-4.43306},{"iata":"GLT","name":"Gladstone Airport","city":"Gladstone","cityCode":"GLT","country":"AU","continent":"SWP","region":"QLD","lat":-23.869763,"lon":151.225439},{"iata":"GMB","name":"Gambela Airport","city":"Gambela","cityCode":"GMB","country":"ET","continent":"AF","region":"GA","lat":8.12876,"lon":34.563099},{"iata":"GMP","name":"Seoul Gimpo International Airport","city":"Seoul","cityCode":"SEL","country":"KR","continent":"AS","region":"11","lat":37.5583,"lon":126.791},{"iata":"GNB","name":"Grenoble Alpes Isère Airport","city":"Grenoble","cityCode":"GNB","country":"FR","continent":"EUME","zone":"EU","region":"ARA","lat":45.3629,"lon":5.32937},{"iata":"GND","name":"Maurice Bishop International Airport","city":"Saint George's","cityCode":"GND","country":"GD","continent":"NA","region":"GE","lat":12.003996,"lon":-61.785302},{"iata":"GNJ","name":"Ganja International Airport","city":"Ganja","cityCode":"GNJ","country":"AZ","continent":"EUME","zone":"EU","region":"GA","lat":40.738692,"lon":46.320383},{"iata":"GNV","name":"Gainesville Regional Airport","city":"Gainesville","cityCode":"GNV","country":"US","continent":"NA","region":"FL","lat":29.6900997162,"lon":-82.2717971802},{"iata":"GNY","name":"Şanlıurfa GAP Airport","city":"Şanlıurfa","cityCode":"GNY","country":"TR","continent":"EUME","zone":"EU","region":"63","lat":37.445663,"lon":38.895592},{"iata":"GOA","name":"Genoa Cristoforo Colombo Airport","city":"Genova (GE)","cityCode":"GOA","country":"IT","continent":"EUME","zone":"EU","region":"42","lat":44.412039,"lon":8.840732},{"iata":"GOB","name":"Robe Airport","city":"Goba","cityCode":"GOB","country":"ET","continent":"AF","region":"OR","lat":7.119033,"lon":40.045166},{"iata":"GOH","name":"Nuuk International Airport","city":"Nuuk","cityCode":"GOH","country":"GL","continent":"NA","region":"SE","lat":64.191066,"lon":-51.67914},{"iata":"GOI","name":"Goa Dabolim International Airport","city":"Vasco da Gama","cityCode":"GOI","country":"IN","continent":"AS","region":"GA","lat":15.380062,"lon":73.833328},{"iata":"GOM","name":"Goma International Airport","city":"Goma","cityCode":"GOM","country":"CD","continent":"AF","region":"NK","lat":-1.666758,"lon":29.238037},{"iata":"GOR","name":"Gore Airport","city":"Gore","cityCode":"GOR","country":"ET","continent":"AF","region":"OR","lat":8.1614,"lon":35.5529},{"iata":"GOT","name":"Göteborg Landvetter Airport","city":"Göteborg","cityCode":"GOT","country":"SE","continent":"EUME","zone":"EU","region":"Q","lat":57.6628,"lon":12.2798},{"iata":"GOX","name":"Manohar International Airport","city":"Mopa","cityCode":"GOX","country":"IN","continent":"AS","region":"GA","lat":15.744257,"lon":73.860625},{"iata":"GPA","name":"Patras Araxos Agamemnon Airport","city":"Patras","cityCode":"GPA","country":"GR","continent":"EUME","zone":"EU","region":"G","lat":38.1511,"lon":21.4256},{"iata":"GPS","name":"Seymour Galapagos Ecological Airport","city":"Isla Baltra","cityCode":"GPS","country":"EC","continent":"SA","region":"W","lat":-0.453758,"lon":-90.2659},{"iata":"GPT","name":"Gulfport Biloxi International Airport","city":"Gulfport","cityCode":"GPT","country":"US","continent":"NA","region":"MS","lat":30.405582,"lon":-89.069836},{"iata":"GRB","name":"Austin Straubel International Airport","city":"Green Bay","cityCode":"GRB","country":"US","continent":"NA","region":"WI","lat":44.483459,"lon":-88.130805},{"iata":"GRI","name":"Central Nebraska Regional Airport","city":"Grand Island","cityCode":"GRI","country":"US","continent":"NA","region":"NE","lat":40.967498779296875,"lon":-98.30960083007812},{"iata":"GRK","name":"Killeen Regional Airport / Robert Gray Army Airfield","city":"Fort Cavazos","cityCode":"GRK","country":"US","continent":"NA","region":"TX","lat":31.0672,"lon":-97.828903},{"iata":"GRO","name":"Girona-Costa Brava Airport","city":"Girona","cityCode":"GRO","country":"ES","continent":"EUME","zone":"EU","region":"CT","lat":41.904639,"lon":2.761774},{"iata":"GRR","name":"Gerald R. Ford International Airport","city":"Grand Rapids","cityCode":"GRR","country":"US","continent":"NA","region":"MI","lat":42.880798,"lon":-85.522797},{"iata":"GRU","name":"São Paulo/Guarulhos–Governor André Franco Montoro International Airport","city":"São Paulo","cityCode":"SAO","country":"BR","continent":"SA","region":"SP","lat":-23.431274,"lon":-46.469954},{"iata":"GRX","name":"F.G.L. Airport Granada-Jaén Airport","city":"Granada","cityCode":"GRX","country":"ES","continent":"EUME","zone":"EU","region":"AN","lat":37.188702,"lon":-3.77736},{"iata":"GRZ","name":"Graz Airport","city":"Feldkirchen bei Graz","cityCode":"GRZ","country":"AT","continent":"EUME","zone":"EU","region":"6","lat":46.9911,"lon":15.4396},{"iata":"GSO","name":"Piedmont Triad International Airport","city":"Greensboro","cityCode":"GSO","country":"US","continent":"NA","region":"NC","lat":36.09937,"lon":-79.937262},{"iata":"GSP","name":"Greenville-Spartanburg International Airport","city":"Greenville/Greer/Spartanburg","cityCode":"GSP","country":"US","continent":"NA","region":"SC","lat":34.895699,"lon":-82.218903},{"iata":"GST","name":"Gustavus Airport","city":"Gustavus","cityCode":"GST","country":"US","continent":"NA","region":"AK","lat":58.4253006,"lon":-135.7070007},{"iata":"GTF","name":"Great Falls International Airport","city":"Great Falls","cityCode":"GTF","country":"US","continent":"NA","region":"MT","lat":47.481998,"lon":-111.371002},{"iata":"GTR","name":"Golden Triangle Regional Airport","city":"Columbus/W Point/Starkville","cityCode":"GTR","country":"US","continent":"NA","region":"MS","lat":33.450298,"lon":-88.5914},{"iata":"GUA","name":"La Aurora International Airport","city":"Guatemala City","cityCode":"GUA","country":"GT","continent":"NA","region":"GU","lat":14.582896,"lon":-90.527515},{"iata":"GUC","name":"Gunnison Crested Butte Regional Airport","city":"Gunnison","cityCode":"GUC","country":"US","continent":"NA","region":"CO","lat":38.534672,"lon":-106.934566},{"iata":"GUM","name":"Antonio B. Won Pat International Airport","city":"Hagåtña","cityCode":"GUM","country":"GU","continent":"AS","region":"U","lat":13.485,"lon":144.797282},{"iata":"GVA","name":"Geneva International Airport","city":"Geneva","cityCode":"GVA","country":"CH","continent":"EUME","zone":"EU","region":"GE","lat":46.238098,"lon":6.10895},{"iata":"GWT","name":"Westerland Sylt Airport","city":"Sylt","cityCode":"GWT","country":"DE","continent":"EUME","zone":"EU","region":"SH","lat":54.9132,"lon":8.34047},{"iata":"GYD","name":"Heydar Aliyev International Airport","city":"Baku","cityCode":"GYD","country":"AZ","continent":"EUME","zone":"EU","region":"BA","lat":40.47278,"lon":50.050931},{"iata":"GYE","name":"José Joaquín de Olmedo International Airport","city":"Guayaquil","cityCode":"GYE","country":"EC","continent":"SA","region":"G","lat":-2.15742,"lon":-79.883598},{"iata":"GYS","name":"Guangyuan Panlong Airport","city":"Guangyuan (Lizhou)","cityCode":"GYS","country":"CN","continent":"AS","region":"51","lat":32.390254,"lon":105.694571},{"iata":"GZP","name":"Gazipaşa-Alanya Airport","city":"Gazipaşa","cityCode":"GZP","country":"TR","continent":"EUME","zone":"EU","region":"07","lat":36.298832,"lon":32.297017},{"iata":"GZT","name":"Gaziantep Oğuzeli International Airport","city":"Gaziantep","cityCode":"GZT","country":"TR","continent":"EUME","zone":"EU","region":"27","lat":36.947201,"lon":37.478699},{"iata":"HAH","name":"Prince Said Ibrahim International Airport","city":"Moroni","cityCode":"HAH","country":"KM","continent":"AF","region":"G","lat":-11.5337,"lon":43.2719},{"iata":"HAJ","name":"Hannover Airport","city":"Hannover","cityCode":"HAJ","country":"DE","continent":"EUME","zone":"EU","region":"NI","lat":52.461102,"lon":9.68508},{"iata":"HAK","name":"Haikou Meilan International Airport","city":"Haikou (Meilan)","cityCode":"HAK","country":"CN","continent":"AS","region":"46","lat":19.9349,"lon":110.459},{"iata":"HAM","name":"Hamburg Helmut Schmidt Airport","city":"Hamburg","cityCode":"HAM","country":"DE","continent":"EUME","zone":"EU","region":"HH","lat":53.630402,"lon":9.98823},{"iata":"HAN","name":"Noi Bai International Airport","city":"Hanoi (Soc Son)","cityCode":"HAN","country":"VN","continent":"AS","region":"RRD","lat":21.221201,"lon":105.806999},{"iata":"HAS","name":"Hail International Airport","city":"Hail","cityCode":"HAS","country":"SA","continent":"EUME","zone":"ME","region":"06","lat":27.437901,"lon":41.686298},{"iata":"HAV","name":"José Martí International Airport","city":"Havana","cityCode":"HAV","country":"CU","continent":"NA","region":"03","lat":22.989200592041016,"lon":-82.40910339355469},{"iata":"HBE","name":"Alexandria International Airport","city":"Alexandria","cityCode":"HBE","country":"EG","continent":"EUME","zone":"ME","region":"ALX","lat":30.93249,"lon":29.696437},{"iata":"HBR","name":"Hobart Regional Airport","city":"Hobart","cityCode":"HBR","country":"US","continent":"NA","region":"OK","lat":34.991317,"lon":-99.051313},{"iata":"HDF","name":"Heringsdorf Airport","city":"Zirchow","cityCode":"HDF","country":"DE","continent":"EUME","zone":"EU","region":"MV","lat":53.8787,"lon":14.1523},{"iata":"HDN","name":"Yampa Valley Airport","city":"Hayden","cityCode":"HDN","country":"US","continent":"NA","region":"CO","lat":40.481201,"lon":-107.218002},{"iata":"HDY","name":"Hat Yai International Airport","city":"Hat Yai","cityCode":"HDY","country":"TH","continent":"AS","region":"90","lat":6.93321,"lon":100.392998},{"iata":"HEL","name":"Helsinki Vantaa Airport","city":"Helsinki (Vantaa)","cityCode":"HEL","country":"FI","continent":"EUME","zone":"EU","region":"18","lat":60.318363,"lon":24.963341},{"iata":"HER","name":"Heraklion International Nikos Kazantzakis Airport","city":"Heraklion","cityCode":"HER","country":"GR","continent":"EUME","zone":"EU","region":"M","lat":35.339699,"lon":25.1803},{"iata":"HET","name":"Hohhot Baita International Airport","city":"Hohhot","cityCode":"HET","country":"CN","continent":"AS","region":"15","lat":40.849658,"lon":111.824598},{"iata":"HEZ","name":"Natchez–Adams County Airport / Hardy-Anders Field","city":"Natchez","cityCode":"HEZ","country":"US","continent":"NA","region":"MS","lat":31.614817,"lon":-91.297331},{"iata":"HFE","name":"Hefei Xinqiao International Airport","city":"Hefei","cityCode":"HFE","country":"CN","continent":"AS","region":"34","lat":31.98779,"lon":116.9769},{"iata":"HGA","name":"Egal International Airport","city":"Hargeisa","cityCode":"HGA","country":"SO","continent":"AF","region":"WO","lat":9.514082,"lon":44.083469},{"iata":"HGH","name":"Hangzhou Xiaoshan International Airport","city":"Hangzhou","cityCode":"HGH","country":"CN","continent":"AS","region":"33","lat":30.23609,"lon":120.428865},{"iata":"HGS","name":"Hastings Airport","city":"Freetown","cityCode":"HGS","country":"SL","continent":"AF","region":"W","lat":8.394348,"lon":-13.128891},{"iata":"HHH","name":"Hilton Head Airport","city":"Hilton Head Island","cityCode":"HHH","country":"US","continent":"NA","region":"SC","lat":32.2244,"lon":-80.697502},{"iata":"HID","name":"Horn Island Airport","city":"Horn","cityCode":"HID","country":"AU","continent":"SWP","region":"QLD","lat":-10.585636,"lon":142.29277},{"iata":"HIJ","name":"Hiroshima Airport","city":"Hiroshima","cityCode":"HIJ","country":"JP","continent":"AS","region":"34","lat":34.4361,"lon":132.919006},{"iata":"HIR","name":"Honiara International Airport","city":"Honiara","cityCode":"HIR","country":"SB","continent":"SWP","region":"GU","lat":-9.428,"lon":160.054993},{"iata":"HKD","name":"Hakodate Airport","city":"Hakodate","cityCode":"HKD","country":"JP","continent":"AS","region":"01","lat":41.77,"lon":140.822006},{"iata":"HKG","name":"Hong Kong International Airport","city":"Hong Kong","cityCode":"HKG","country":"HK","continent":"AS","region":"NT","lat":22.31184,"lon":113.914862},{"iata":"HKK","name":"Hokitika Airfield","city":"Hokitika Airfield","cityCode":"HKK","country":"NZ","continent":"SWP","region":"WTC","lat":-42.713600158691406,"lon":170.98500061035156},{"iata":"HKT","name":"Phuket International Airport","city":"Phuket","cityCode":"HKT","country":"TH","continent":"AS","region":"83","lat":8.113257,"lon":98.3174},{"iata":"HLA","name":"Lanseria International Airport","city":"Johannesburg","cityCode":"HLA","country":"ZA","continent":"AF","region":"GT","lat":-25.938964,"lon":27.926642},{"iata":"HLD","name":"Hulunbuir Hailar Airport","city":"Hailar","cityCode":"HLD","country":"CN","continent":"AS","region":"15","lat":49.208616,"lon":119.822301},{"iata":"HLH","name":"Ulanhot Yilelite Airport","city":"Ulanhot","cityCode":"HLH","country":"CN","continent":"AS","region":"15","lat":46.195333,"lon":122.008333},{"iata":"HLN","name":"Helena Regional Airport","city":"Helena","cityCode":"HLN","country":"US","continent":"NA","region":"MT","lat":46.6068,"lon":-111.983002},{"iata":"HLZ","name":"Hamilton International Airport","city":"Hamilton","cityCode":"HLZ","country":"NZ","continent":"SWP","region":"WKO","lat":-37.866961,"lon":175.331952},{"iata":"HMI","name":"Hami Airport","city":"Hami","cityCode":"HMI","country":"CN","continent":"AS","region":"65","lat":42.8414,"lon":93.669197},{"iata":"HMO","name":"General Ignacio L. Pesqueira International Airport","city":"Hermosillo","cityCode":"HMO","country":"MX","continent":"NA","region":"SON","lat":29.092811,"lon":-111.053015},{"iata":"HNA","name":"Iwate Hanamaki Airport","city":"Hanamaki","cityCode":"HNA","country":"JP","continent":"AS","region":"03","lat":39.4286,"lon":141.134995},{"iata":"HND","name":"Tokyo Haneda International Airport","city":"Tokyo","cityCode":"TYO","country":"JP","continent":"AS","region":"13","lat":35.549678,"lon":139.786958},{"iata":"HNL","name":"Daniel K. Inouye International Airport","city":"Honolulu, Oahu","cityCode":"HNL","country":"US","continent":"NA","region":"HI","lat":21.318387,"lon":-157.92567},{"iata":"HNY","name":"Hengyang Nanyue Airport","city":"Hengyang","cityCode":"HNY","country":"CN","continent":"AS","region":"43","lat":26.72208,"lon":112.617958},{"iata":"HOB","name":"Lea County Regional Airport","city":"Hobbs","cityCode":"HOB","country":"US","continent":"NA","region":"NM","lat":32.6875,"lon":-103.217003},{"iata":"HOG","name":"Frank Pais International Airport","city":"Holguin","cityCode":"HOG","country":"CU","continent":"NA","region":"11","lat":20.785148,"lon":-76.315526},{"iata":"HOU","name":"William P. Hobby Airport","city":"Houston","cityCode":"HOU","country":"US","continent":"NA","region":"TX","lat":29.645336,"lon":-95.276812},{"iata":"HPH","name":"Cat Bi International Airport","city":"Haiphong (Hai An)","cityCode":"HPH","country":"VN","continent":"AS","region":"RRD","lat":20.817428,"lon":106.724315},{"iata":"HPN","name":"Westchester County Airport","city":"White Plains","cityCode":"HPN","country":"US","continent":"NA","region":"NY","lat":41.06700134277344,"lon":-73.70760345458984},{"iata":"HRB","name":"Harbin Taiping International Airport","city":"Harbin","cityCode":"HRB","country":"CN","continent":"AS","region":"23","lat":45.623402,"lon":126.25},{"iata":"HRE","name":"Robert Gabriel Mugabe International Airport","city":"Harare","cityCode":"HRE","country":"ZW","continent":"AF","region":"HA","lat":-17.931801,"lon":31.0928},{"iata":"HRG","name":"Hurghada International Airport","city":"Hurghada","cityCode":"HRG","country":"EG","continent":"EUME","zone":"ME","region":"BA","lat":27.176776,"lon":33.796692},{"iata":"HRL","name":"Valley International Airport","city":"Harlingen","cityCode":"HRL","country":"US","continent":"NA","region":"TX","lat":26.228500366210938,"lon":-97.65440368652344},{"iata":"HSA","name":"Hazrat Sultan International Airport","city":"Turkıstan","cityCode":"HSA","country":"KZ","continent":"AS","region":"YUZ","lat":43.311087,"lon":68.550352},{"iata":"HSF","name":"Suifenhe Dongning Airport","city":"Suifenhe","cityCode":"HSF","country":"CN","continent":"AS","region":"23","lat":44.453889,"lon":130.843889},{"iata":"HSG","name":"Kyushu Saga International Airport","city":"Saga","cityCode":"HSG","country":"JP","continent":"AS","region":"41","lat":33.1497,"lon":130.302002},{"iata":"HSN","name":"Zhoushan Putuoshan International Airport","city":"Zhoushan","cityCode":"HSN","country":"CN","continent":"AS","region":"33","lat":29.933874,"lon":122.362307},{"iata":"HSR","name":"Rajkot International Airport","city":"Rajkot","cityCode":"HSR","country":"IN","continent":"AS","region":"GJ","lat":22.378824,"lon":71.039391},{"iata":"HSV","name":"Huntsville International Airport","city":"Huntsville","cityCode":"HSV","country":"US","continent":"NA","region":"AL","lat":34.636244,"lon":-86.774378},{"iata":"HTA","name":"Chita-Kadala International Airport","city":"Chita","cityCode":"HTA","country":"RU","continent":"AS","region":"ZAB","lat":52.024841,"lon":113.305839},{"iata":"HTI","name":"Hamilton Island Airport","city":"Hamilton Island","cityCode":"HTI","country":"AU","continent":"SWP","region":"QLD","lat":-20.3581008911,"lon":148.95199585},{"iata":"HTN","name":"Hotan Airport","city":"Hotan","cityCode":"HTN","country":"CN","continent":"AS","region":"65","lat":37.03850173950195,"lon":79.86489868164062},{"iata":"HTS","name":"Tri-State Airport / Milton J. Ferguson Field","city":"Huntington","cityCode":"HTS","country":"US","continent":"NA","region":"WV","lat":38.366699,"lon":-82.557999},{"iata":"HTY","name":"Hatay Airport","city":"Antakya","cityCode":"HTY","country":"TR","continent":"EUME","zone":"EU","region":"31","lat":36.36079,"lon":36.285589},{"iata":"HUE","name":"Humera Airport","city":"Akwi","cityCode":"HUE","country":"ET","continent":"AF","region":"TI","lat":13.83012,"lon":36.88237},